{"type":"FeatureCollection","features":[{"type":"Feature","geometry":{"type":"Point","coordinates":[-89.38123213,36.03901795]},"properties":{"property_city":"Dyersburg","property_state":"TN","street":"SAMPSON STREET","zip":38024,"mortgages":[{"proj_num":8142040,"name":"SAMPSON TERRACE APTS","units":0,"amount":4,"first_payment_date":{"year":1950,"month":8,"day":1},"holder_name":"","holder_city":"","holder_state":""}]}},{"type":"Feature","geometry":{"type":"Point","coordinates":[-87.70385822,34.7639561]},"properties":{"property_city":"Sheffield","property_state":"AL","street":"601 W 6TH ST","zip":0,"mortgages":[{"proj_num":6242152,"name":"LORRAINE APTS","units":40,"amount":4,"first_payment_date":{"year":1951,"month":9,"day":1},"holder_name":"","holder_city":"","holder_state":""}]}},{"type":"Feature","geometry":{"type":"Point","coordinates":[-87.69034139,34.8171592]},"properties":{"property_city":"Florence","property_state":"AL","street":"GRAHAM AVE AND EASON ST","zip":0,"mortgages":[{"proj_num":6242056,"name":"WILDWOOD TERRACE","units":60,"amount":4,"first_payment_date":null,"holder_city":"Ny","holder_state":""},{"proj_num":6242153,"name":"FLORENCE APTS","units":32,"amount":4,"first_payment_date":null,"holder_city":"Al","holder_state":""}]}},{"type":"Feature","geometry":{"type":"Point","coordinates":[-87.689857,34.77089202]},"properties":{"property_city":"Sheffield","property_state":"AL","street":"19TH AVE AND 30TH ST","zip":0,"mortgages":[{"proj_num":6242140,"name":"SHEFFIELD TERRACE","units":50,"amount":4,"first_payment_date":null,"holder_city":"Al","holder_state":""}]}},{"type":"Feature","geometry":{"type":"Point","coordinates":[-86.97357521,34.60168669]},"properties":{"property_city":"Decatur","property_state":"AL","street":"1018 GRANT ST","zip":0,"mortgages":[{"proj_num":6240015,"name":"GARDEN CT","units":16,"amount":4,"first_payment_date":null,"holder_city":"Tx","holder_state":""}]}},{"type":"Feature","geometry":{"type":"Point","coordinates":[-86.85832728,36.1352325]},"properties":{"property_city":"Nashville-Davidson","property_state":"TN","street":"White Bridge Rd & Vine Ridge Dr","zip":0,"mortgages":[{"proj_num":8142025,"name":"BROOKSIDE COURT","units":64,"amount":477900,"first_payment_date":{"year":1950,"month":8,"day":1},"holder_city":"White Plains","holder_state":"NY"},{"proj_num":8142026,"name":"BROOKSIDE COURT","units":60,"amount":422000,"first_payment_date":{"year":1950,"month":8,"day":1},"holder_name":"","holder_city":"","holder_state":""}],"white_pop":433,"black_pop":38,"other_pop":0,"gisjoin":"G47003700051","median_income":0}},{"type":"Feature","geometry":{"type":"Point","coordinates":[-86.83198889,36.16148129]},"properties":{"property_city":"Nashville-Davidson","property_state":"TN","street":"3717 CLARE STREET","zip":37209,"mortgages":[{"proj_num":8142041,"name":"COLLEGE HILLS APTS","units":100,"amount":4,"first_payment_date":null,"holder_city":"Ms","holder_state":""},{"proj_num":8142042,"name":"COLLEGE HILLS HSG INC","units":116,"amount":4,"first_payment_date":null,"holder_city":"Ms","holder_state":""}],"white_pop":30,"black_pop":5898,"other_pop":1,"gisjoin":"G47003700027","median_income":841}},{"type":"Feature","geometry":{"type":"Point","coordinates":[-86.82932296,36.12805998]},"properties":{"property_city":"Nashville-Davidson","property_state":"TN","street":"Rolland Rd and Leonard Ave","zip":0,"mortgages":[{"proj_num":8142035,"name":"ROLLAND APTS","units":34,"amount":238600,"first_payment_date":{"year":1950,"month":11,"day":1},"holder_city":"New York","holder_state":"NY"}],"white_pop":4090,"black_pop":58,"other_pop":2,"gisjoin":"G47003700053","median_income":6020}},{"type":"Feature","geometry":{"type":"Point","coordinates":[-86.82670504,36.145529]},"properties":{"property_city":"Nashville-Davidson","property_state":"TN","street":"308-310 Normandy Circle","zip":0,"mortgages":[{"proj_num":8142043,"name":"ACKLEN HEIGHTS","units":100,"amount":"","first_payment_date":{"year":1951,"month":3,"day":1},"holder_name":"LIFE & CASUALTY INSURANCE CO","holder_city":"Houston","holder_state":"TX"}],"white_pop":6700,"black_pop":6,"other_pop":1,"gisjoin":"G47003700028","median_income":2994}},{"type":"Feature","geometry":{"type":"Point","coordinates":[-86.818832,36.14246101]},"properties":{"property_city":"Nashville-Davidson","property_state":"TN","street":"112 Acklen Park Dr","zip":0,"mortgages":[{"proj_num":8142044,"name":"SKYLINE APTS","units":48,"amount":381000,"first_payment_date":{"year":1950,"month":11,"day":1},"holder_city":"New York","holder_state":"NY"}],"white_pop":4234,"black_pop":42,"other_pop":2,"gisjoin":"G47003700023","median_income":3086}},{"type":"Feature","geometry":{"type":"Point","coordinates":[-86.81635297,36.14643898]},"properties":{"property_city":"Nashville-Davidson","property_state":"TN","street":"31st Ave N and Long Blvd","zip":0,"mortgages":[{"proj_num":8140002,"name":"PARTHENON COURTS","units":16,"amount":120200,"first_payment_date":{"year":1948,"month":2,"day":1},"holder_city":"Frederick","holder_state":"MD"},{"proj_num":8140010,"name":"PARTHENON CTS INC","units":8,"amount":"","first_payment_date":{"year":1948,"month":6,"day":1},"holder_name":"WELLS FARGO BANK NA-PRUDENTIAL","holder_city":"Frederick","holder_state":"MD"}],"white_pop":4234,"black_pop":42,"other_pop":2,"gisjoin":"G47003700023","median_income":3086}},{"type":"Feature","geometry":{"type":"Point","coordinates":[-86.80511804,36.15295]},"properties":{"property_city":"Nashville-Davidson","property_state":"TN","street":"2200 State St","zip":0,"mortgages":[{"proj_num":8142020,"name":"SHERIDAN COURTS","units":31,"amount":175000,"first_payment_date":{"year":1950,"month":4,"day":1},"holder_city":"Frederick","holder_state":"MD"}],"white_pop":5795,"black_pop":142,"other_pop":2,"gisjoin":"G47003700022","median_income":1509}},{"type":"Feature","geometry":{"type":"Point","coordinates":[-86.80016473,36.10135798]},"properties":{"property_city":"Nashville-Davidson","property_state":"TN","street":"4223 Granny White Pike","zip":0,"mortgages":[{"proj_num":8140024,"name":"COLONIAL HOMES","units":24,"amount":"","first_payment_date":{"year":1948,"month":8,"day":1},"holder_name":"LIFE & CASUALTY INSURANCE CO","holder_city":"Houston","holder_state":"TX"}],"white_pop":3952,"black_pop":41,"other_pop":8,"gisjoin":"G47003700055","median_income":2844}},{"type":"Feature","geometry":{"type":"Point","coordinates":[-86.79857988,36.13666068]},"properties":{"property_city":"Nashville-Davidson","property_state":"TN","street":"16th ave and Belcourt Ave","zip":0,"mortgages":[{"proj_num":8140007,"name":"BELMONT TERRACE","units":14,"amount":105000,"first_payment_date":{"year":1948,"month":5,"day":1},"holder_city":"Nashville","holder_state":"TN"}],"white_pop":4592,"black_pop":952,"other_pop":1,"gisjoin":"G47003700013","median_income":1761}},{"type":"Feature","geometry":{"type":"Point","coordinates":[-86.79614102,36.13380699]},"properties":{"property_city":"Nashville-Davidson","property_state":"TN","street":"1919 Belmont Blvd","zip":0,"mortgages":[{"proj_num":8140008,"name":"BELMONT COURTS","units":24,"amount":182000,"first_payment_date":{"year":1948,"month":5,"day":1},"holder_city":"Frederick","holder_state":"MD"}],"white_pop":4592,"black_pop":952,"other_pop":1,"gisjoin":"G47003700013","median_income":1761}},{"type":"Feature","geometry":{"type":"Point","coordinates":[-86.79216437,36.131987]},"properties":{"property_city":"Nashville-Davidson","property_state":"TN","street":"2016 BERNARD CIRCLE","zip":37212,"mortgages":[{"proj_num":8142051,"name":"COLONIAL VILLAGE APTS","units":116,"amount":4,"first_payment_date":{"year":1952,"month":1,"day":1},"holder_name":"","holder_city":"","holder_state":""}],"white_pop":4164,"black_pop":4,"other_pop":2,"gisjoin":"G47003700014","median_income":3021}},{"type":"Feature","geometry":{"type":"Point","coordinates":[-86.78444,36.16589]},"properties":{"property_city":"Nashville-Davidson","property_state":"TN","street":"3791 RALEIGH FRAYSER RD.","zip":38128,"mortgages":[{"proj_num":8142037,"name":"HILLSDALE APTS","units":32,"amount":4,"first_payment_date":null,"holder_city":"Ny","holder_state":""}],"white_pop":773,"black_pop":517,"other_pop":0,"gisjoin":"G47003700007","median_income":1337}},{"type":"Feature","geometry":{"type":"Point","coordinates":[-86.7531165,36.11098395]},"properties":{"property_city":"Nashville-Davidson","property_state":"TN","street":"607 E Thompson Ln","zip":0,"mortgages":[{"proj_num":8142078,"name":"FAIRGROUNDS APTS","units":20,"amount":114000,"first_payment_date":{"year":1950,"month":12,"day":1},"holder_city":"Houston","holder_state":"TX"}],"white_pop":5586,"black_pop":76,"other_pop":0,"gisjoin":"G47003700061","median_income":2655}}]}