{"type":"FeatureCollection","features":[{"type":"Feature","geometry":{"type":"Point","coordinates":[-75.6344991,40.26284817]},"properties":{"property_city":"Pottstown","property_state":"PA","street":"MAPLEWOOD DRIVE","zip":19464,"mortgages":[{"proj_num":3440005,"name":"MAPLE GARDENS","units":56,"amount":500000,"first_payment_date":{"year":1951,"month":3,"day":1},"holder_name":"","holder_city":"","holder_state":""}],"white_pop":15603,"black_pop":644,"other_pop":1,"gisjoin":"G4200910M0089","median_income":3314}},{"type":"Feature","geometry":{"type":"Point","coordinates":[-75.6305406,40.25721578]},"properties":{"property_city":"Pottstown","property_state":"PA","street":"529 Prospect St","zip":19464,"mortgages":[{"proj_num":3442034,"name":"BELMONT-HOMES INC","units":72,"amount":500200,"first_payment_date":{"year":1950,"month":11,"day":1},"holder_city":"Buffalo","holder_state":"NY"}],"white_pop":15603,"black_pop":644,"other_pop":1,"gisjoin":"G4200910M0089","median_income":3314}},{"type":"Feature","geometry":{"type":"Point","coordinates":[-75.62904197,40.25696399]},"properties":{"property_city":"Pottstown","property_state":"PA","street":"915 N Warren St","zip":19464,"mortgages":[{"proj_num":3442039,"name":"BELMONT-HOMES INC","units":32,"amount":221000,"first_payment_date":{"year":1950,"month":11,"day":1},"holder_city":"Buffalo","holder_state":"NY"}],"white_pop":15603,"black_pop":644,"other_pop":1,"gisjoin":"G4200910M0089","median_income":3314}},{"type":"Feature","geometry":{"type":"Point","coordinates":[-75.53921404,40.19012602]},"properties":{"property_city":"Doylestown","property_state":"PA","street":"Oak St and N 6th Ave","zip":18901,"mortgages":[{"proj_num":3442064,"name":"OAK TERR APTS","units":28,"amount":226800,"first_payment_date":{"year":1951,"month":5,"day":1},"holder_name":"DOLLAR-DRY DOCK BANK","holder_city":"White Plains","holder_state":"NY"}],"white_pop":3861,"black_pop":1,"other_pop":0,"gisjoin":"G4200910M0062","median_income":3587}},{"type":"Feature","geometry":{"type":"Point","coordinates":[-75.51168603,40.60749602]},"properties":{"property_city":"Allentown","property_state":"PA","street":"23RD & LIVINGSTON STS","zip":18104,"mortgages":[{"proj_num":3440008,"name":"TREMONT APTS","units":126,"amount":1047000,"first_payment_date":null,"holder_city":"Ct","holder_state":"No Data Available"}]}},{"type":"Feature","geometry":{"type":"Point","coordinates":[-75.48575032,40.5929338]},"properties":{"property_city":"Allentown","property_state":"PA","street":"SOUTH 15TH & ELM STS","zip":18102,"mortgages":[{"proj_num":3440035,"name":"VALLEY VIEW APTS","units":168,"amount":1316000,"first_payment_date":null,"holder_city":"Ny","holder_state":"No Data Available"}]}},{"type":"Feature","geometry":{"type":"Point","coordinates":[-75.370329,40.63334899]},"properties":{"property_city":"Bethlehem","property_state":"PA","street":"MADISON AVE & HILLMOND R","zip":18018,"mortgages":[{"proj_num":3442043,"name":"MADISON APTS","units":40,"amount":300800,"first_payment_date":null,"holder_city":"Fl","holder_state":"No Data Available"}]}},{"type":"Feature","geometry":{"type":"Point","coordinates":[-75.328465,40.02144299]},"properties":{"property_city":"Radnor","property_state":"PA","street":"200 DAVID DRIVE","zip":19087,"mortgages":[{"proj_num":3442057,"name":"BROADLAWN APTS","units":296,"amount":2501400,"first_payment_date":{"year":1951,"month":8,"day":1},"holder_name":"","holder_city":"","holder_state":""}],"white_pop":3447,"black_pop":291,"other_pop":2,"gisjoin":"G4200450D0096","median_income":3518}},{"type":"Feature","geometry":{"type":"Point","coordinates":[-75.30078139,40.00488828]},"properties":{"property_city":"Haverford","property_state":"PA","street":"800 ARDMORE AVE","zip":19041,"mortgages":[{"proj_num":3442032,"name":"HAVERFORD PK APTS","units":168,"amount":1399499,"first_payment_date":{"year":1950,"month":12,"day":1},"holder_name":"","holder_city":"","holder_state":""}],"white_pop":1805,"black_pop":102,"other_pop":2,"gisjoin":"G4200450D0083","median_income":1827}},{"type":"Feature","geometry":{"type":"Point","coordinates":[-75.26882292,40.00178608]},"properties":{"property_city":"Merion","property_state":"PA","street":"WYNWD & YERKES ROADS","zip":19066,"mortgages":[{"proj_num":3440016,"name":"THE BRYNWOOD","units":140,"amount":1307000,"first_payment_date":null,"holder_city":"Ma","holder_state":"No Data Available"}],"white_pop":5341,"black_pop":112,"other_pop":1,"gisjoin":"G4200910M0054","median_income":5583}},{"type":"Feature","geometry":{"type":"Point","coordinates":[-75.25472504,39.979956]},"properties":{"property_city":"Philadelphia","property_state":"PA","street":"1120 North 66th st","zip":0,"mortgages":[{"proj_num":3442005,"name":"LOTUS VILLAGE","units":48,"amount":376000,"first_payment_date":{"year":1949,"month":12,"day":1},"holder_name":"MELLON BANK EAST NA","holder_city":"Philadelphia","holder_state":"PA"}],"white_pop":3653,"black_pop":41,"other_pop":4,"gisjoin":"G42010100034J","median_income":3703}},{"type":"Feature","geometry":{"type":"Point","coordinates":[-75.25361201,39.98046801]},"properties":{"property_city":"Philadelphia","property_state":"PA","street":"1121 North 66th st","zip":0,"mortgages":[{"proj_num":3442006,"name":"EAST LOTUS VILG","units":32,"amount":249700,"first_payment_date":{"year":1949,"month":12,"day":1},"holder_city":"Buffalo","holder_state":"NY"}],"white_pop":3653,"black_pop":41,"other_pop":4,"gisjoin":"G42010100034J","median_income":3703}},{"type":"Feature","geometry":{"type":"Point","coordinates":[-75.22901338,40.00453069]},"properties":{"property_city":"Lower Merion Twp","property_state":"PA","street":"Conshohocken State Rd and Union Ave","zip":19072,"mortgages":[{"proj_num":3442081,"name":"BALA REALTY CO","units":38,"amount":329300,"first_payment_date":{"year":1951,"month":4,"day":1},"holder_name":"","holder_city":"","holder_state":""}],"white_pop":3139,"black_pop":37,"other_pop":0,"gisjoin":"G4200910M0044","median_income":5344}},{"type":"Feature","geometry":{"type":"Point","coordinates":[-75.19862404,40.07409399]},"properties":{"property_city":"Philadelphia","property_state":"PA","street":"219 E WILLOW GROVE AVE","zip":19118,"mortgages":[{"proj_num":3442022,"name":"WYNDMOOR GARDENS","units":68,"amount":561600,"first_payment_date":null,"holder_city":"Ny","holder_state":"No Data Available"}],"white_pop":2256,"black_pop":3,"other_pop":0,"gisjoin":"G42010100022G","median_income":3604}},{"type":"Feature","geometry":{"type":"Point","coordinates":[-75.19786841,40.03507035]},"properties":{"property_city":"Philadelphia","property_state":"PA","street":"1650 Parkline Dr, Brentwood, PA 15227","zip":15227,"mortgages":[{"proj_num":3340068,"name":"PARKLINE DWLGS A","units":10,"amount":100800,"first_payment_date":{"year":1949,"month":4,"day":1},"holder_name":"PHILADELPHIA SAVINGS FUND SOC","holder_city":"Philadelphia","holder_state":"PA"}],"white_pop":51,"black_pop":0,"other_pop":0,"gisjoin":"G42010100021C","median_income":0}},{"type":"Feature","geometry":{"type":"Point","coordinates":[-75.19304037,40.05147684]},"properties":{"property_city":"Philadelphia","property_state":"PA","street":"200 ROSEMARY LANE","zip":19119,"mortgages":[{"proj_num":3442045,"name":"ROSEMARY GARDENS","units":40,"amount":314000,"first_payment_date":null,"holder_city":"Ri","holder_state":""}],"white_pop":2165,"black_pop":19,"other_pop":0,"gisjoin":"G42010100022V","median_income":4325}},{"type":"Feature","geometry":{"type":"Point","coordinates":[-75.19295703,40.06272801]},"properties":{"property_city":"Philadelphia","property_state":"PA","street":"GERMANTOWN & GOWEN AVES","zip":19119,"mortgages":[{"proj_num":3442013,"name":"PRINCETON GARDENS","units":36,"amount":287800,"first_payment_date":null,"holder_city":"Ny","holder_state":"No Data Available"}],"white_pop":3073,"black_pop":8,"other_pop":2,"gisjoin":"G42010100022F","median_income":5229}},{"type":"Feature","geometry":{"type":"Point","coordinates":[-75.19268898,40.03231901]},"properties":{"property_city":"Philadelphia","property_state":"PA","street":"685 W. Walnut Lane","zip":0,"mortgages":[{"proj_num":3442020,"name":"PARK PLAZA APT","units":28,"amount":226800,"first_payment_date":{"year":1950,"month":5,"day":1},"holder_name":"MANHATTAN SAVINGS BANK","holder_city":"Brooklyn","holder_state":"NY"}],"white_pop":1338,"black_pop":33,"other_pop":1,"gisjoin":"G42010100021B","median_income":0}},{"type":"Feature","geometry":{"type":"Point","coordinates":[-75.18787098,40.039544]},"properties":{"property_city":"Philadelphia","property_state":"PA","street":"330 W JOHNSON ST","zip":19144,"mortgages":[{"proj_num":3442021,"name":"JOHNSON PK MANOR","units":56,"amount":455400,"first_payment_date":null,"holder_city":"Ny","holder_state":"No Data Available"}],"white_pop":4819,"black_pop":1091,"other_pop":9,"gisjoin":"G42010100022AA","median_income":3295}},{"type":"Feature","geometry":{"type":"Point","coordinates":[-75.18769798,40.03186802]},"properties":{"property_city":"Philadelphia","property_state":"PA","street":"LINCOLN DR & HARVEY ST","zip":19144,"mortgages":[{"proj_num":3442037,"name":"PARK DRIVE MANOR","units":576,"amount":5000000,"first_payment_date":{"year":1951,"month":9,"day":1},"holder_name":"","holder_city":"","holder_state":""}],"white_pop":2009,"black_pop":29,"other_pop":0,"gisjoin":"G42010100022BB","median_income":4159}},{"type":"Feature","geometry":{"type":"Point","coordinates":[-75.18704301,40.040357]},"properties":{"property_city":"Philadelphia","property_state":"PA","street":"6350 GREEN ST","zip":19144,"mortgages":[{"proj_num":3442084,"name":"JOHNSON MANOR","units":168,"amount":1428800,"first_payment_date":null,"holder_city":"Tx","holder_state":""}],"white_pop":4819,"black_pop":1091,"other_pop":9,"gisjoin":"G42010100022AA","median_income":3295}},{"type":"Feature","geometry":{"type":"Point","coordinates":[-75.18463699,40.07056098]},"properties":{"property_city":"Philadelphia","property_state":"PA","street":"STENTON & GOWEN AVES","zip":19150,"mortgages":[{"proj_num":3440029,"name":"STENTON HALL NURSING HOM","units":20,"amount":157367,"first_payment_date":null,"holder_city":"Ny","holder_state":"No Data Available"}],"white_pop":3073,"black_pop":8,"other_pop":2,"gisjoin":"G42010100022F","median_income":5229}},{"type":"Feature","geometry":{"type":"Point","coordinates":[-75.18337803,40.03954798]},"properties":{"property_city":"Philadelphia","property_state":"PA","street":"139 W TULPEHOCKEN ST","zip":19145,"mortgages":[{"proj_num":3442028,"name":"HAMPTON COURT","units":17,"amount":136000,"first_payment_date":{"year":1950,"month":6,"day":1},"holder_name":"","holder_city":"","holder_state":""}],"white_pop":4819,"black_pop":1091,"other_pop":9,"gisjoin":"G42010100022AA","median_income":3295}},{"type":"Feature","geometry":{"type":"Point","coordinates":[-75.18106001,40.02483401]},"properties":{"property_city":"Philadelphia","property_state":"PA","street":"5450 WISSAHICKON AVE","zip":19144,"mortgages":[{"proj_num":3442036,"name":"SCHOOL LANE HOUSE APTS","units":512,"amount":4478900,"first_payment_date":null,"holder_city":"Ny","holder_state":"No Data Available"}],"white_pop":1228,"black_pop":15,"other_pop":4,"gisjoin":"G42010100038C","median_income":6571}},{"type":"Feature","geometry":{"type":"Point","coordinates":[-75.18025501,40.06058798]},"properties":{"property_city":"Philadelphia","property_state":"PA","street":"6748-88 BLAKEMORE ST","zip":19119,"mortgages":[{"proj_num":3440021,"name":"BLAKEMORE APTS","units":48,"amount":360000,"first_payment_date":null,"holder_city":"Ny","holder_state":""}],"white_pop":3511,"black_pop":8,"other_pop":0,"gisjoin":"G42010100022D","median_income":4821}},{"type":"Feature","geometry":{"type":"Point","coordinates":[-75.17751899,40.046376]},"properties":{"property_city":"Philadelphia","property_state":"PA","street":"6257 Morton St","zip":19144,"mortgages":[{"proj_num":3460004,"name":"LANE GARDENS","units":64,"amount":240000,"first_payment_date":{"year":1944,"month":8,"day":1},"holder_name":"","holder_city":"","holder_state":""}],"white_pop":8989,"black_pop":499,"other_pop":14,"gisjoin":"G42010100022Z","median_income":3351}},{"type":"Feature","geometry":{"type":"Point","coordinates":[-75.1772437,40.07544598]},"properties":{"property_city":"Philadelphia","property_state":"PA","street":"1337 WADSWORTH AVE","zip":19150,"mortgages":[{"proj_num":3440015,"name":"FORREST VILLAGE","units":80,"amount":601433,"first_payment_date":null,"holder_city":"Ct","holder_state":"No Data Available"}],"white_pop":271,"black_pop":0,"other_pop":0,"gisjoin":"G42010100042I","median_income":0}},{"type":"Feature","geometry":{"type":"Point","coordinates":[-75.17646802,40.05787695]},"properties":{"property_city":"Philadelphia","property_state":"PA","street":"6600 BLAKEMORE ST","zip":19119,"mortgages":[{"proj_num":3442011,"name":"STENTON ARMS APTS","units":24,"amount":181589,"first_payment_date":null,"holder_city":"Ny","holder_state":"No Data Available"}],"white_pop":3511,"black_pop":8,"other_pop":0,"gisjoin":"G42010100022D","median_income":4821}},{"type":"Feature","geometry":{"type":"Point","coordinates":[-75.17646551,40.057701]},"properties":{"property_city":"Philadelphia","property_state":"PA","street":"BLAKEMORE & SPRAGUE STS","zip":19119,"mortgages":[{"proj_num":3440030,"name":"STENTON COURT","units":23,"amount":177848,"first_payment_date":null,"holder_city":"Ny","holder_state":"No Data Available"}],"white_pop":3511,"black_pop":8,"other_pop":0,"gisjoin":"G42010100022D","median_income":4821}},{"type":"Feature","geometry":{"type":"Point","coordinates":[-75.17212096,40.07453899]},"properties":{"property_city":"Philadelphia","property_state":"PA","street":"1326 E MT PLEASANT AVE","zip":19150,"mortgages":[{"proj_num":3440004,"name":"PLEASANT GARDENS","units":88,"amount":593500,"first_payment_date":null,"holder_city":"Ny","holder_state":"No Data Available"}],"white_pop":2904,"black_pop":3,"other_pop":1,"gisjoin":"G42010100042G","median_income":4079}},{"type":"Feature","geometry":{"type":"Point","coordinates":[-75.17168301,39.94842001]},"properties":{"property_city":"Philadelphia","property_state":"PA","street":"1810 RITTENHOUSE SQ","zip":19103,"mortgages":[{"proj_num":3442075,"name":"1810 RITTENHOUSE","units":226,"amount":1675214,"first_payment_date":null,"holder_city":"Pr","holder_state":"No Data Available"}],"white_pop":8987,"black_pop":350,"other_pop":64,"gisjoin":"G42010100008B","median_income":2455}},{"type":"Feature","geometry":{"type":"Point","coordinates":[-75.17121102,39.97522702]},"properties":{"property_city":"Philadelphia","property_state":"PA","street":"2101 N College Avenue","zip":0,"mortgages":[{"proj_num":3442066,"name":"GIRARD COURT APTS","units":64,"amount":423600,"first_payment_date":{"year":1951,"month":6,"day":1},"holder_name":"BOWERY SAVINGS BANK-FDIC","holder_city":"East Hartford","holder_state":"CT"}],"white_pop":2408,"black_pop":8253,"other_pop":9,"gisjoin":"G42010100047C","median_income":1391}},{"type":"Feature","geometry":{"type":"Point","coordinates":[-75.16307102,40.04069299]},"properties":{"property_city":"Philadelphia","property_state":"PA","street":"600 E CHURCH LANE","zip":19144,"mortgages":[{"proj_num":3442053,"name":"CHURCH LANE VILLAGE","units":0,"amount":340200,"first_payment_date":null,"holder_city":"Fl","holder_state":""}],"white_pop":7167,"black_pop":262,"other_pop":3,"gisjoin":"G42010100022GG","median_income":3100}},{"type":"Feature","geometry":{"type":"Point","coordinates":[-75.16017801,40.042053]},"properties":{"property_city":"Philadelphia","property_state":"PA","street":"5346 W CHEW AVE","zip":19138,"mortgages":[{"proj_num":3440003,"name":"WESTON COURT APTS","units":40,"amount":255600,"first_payment_date":{"year":1948,"month":7,"day":1},"holder_name":"","holder_city":"","holder_state":""}],"white_pop":7167,"black_pop":262,"other_pop":3,"gisjoin":"G42010100022GG","median_income":3100}},{"type":"Feature","geometry":{"type":"Point","coordinates":[-75.15836802,40.04149602]},"properties":{"property_city":"Philadelphia","property_state":"PA","street":"Chew and Wister","zip":0,"mortgages":[{"proj_num":3440001,"name":"OLNEY GARDENS INC","units":28,"amount":200000,"first_payment_date":{"year":1948,"month":5,"day":1},"holder_city":"East Hartford","holder_state":"CT"}],"white_pop":6162,"black_pop":1044,"other_pop":2,"gisjoin":"G42010100022HH","median_income":2755}},{"type":"Feature","geometry":{"type":"Point","coordinates":[-75.15655602,40.072858]},"properties":{"property_city":"Cheltenham","property_state":"PA","street":"2317 79th Ave","zip":19012,"mortgages":[{"proj_num":3442048,"name":"WIDENER VILLAGE III","units":496,"amount":3894800,"first_payment_date":{"year":1950,"month":12,"day":1},"holder_name":"","holder_city":"","holder_state":""}],"white_pop":10969,"black_pop":12,"other_pop":1,"gisjoin":"G42010100042F","median_income":4492}},{"type":"Feature","geometry":{"type":"Point","coordinates":[-75.15636875,40.0013123]},"properties":{"property_city":"Philadelphia","property_state":"PA","street":"3136 N 16TH ST","zip":19132,"mortgages":[{"proj_num":3442030,"name":"HEDGEROW APTS","units":45,"amount":315300,"first_payment_date":null,"holder_city":"Ct","holder_state":"No Data Available"}],"white_pop":12391,"black_pop":4020,"other_pop":57,"gisjoin":"G42010100038H","median_income":2331}},{"type":"Feature","geometry":{"type":"Point","coordinates":[-75.156323,40.06995501]},"properties":{"property_city":"Cheltenham","property_state":"PA","street":"2310 76th Ave","zip":19012,"mortgages":[{"proj_num":3442049,"name":"WIDENER VILLAGE IV","units":404,"amount":3160300,"first_payment_date":{"year":1951,"month":9,"day":1},"holder_name":"","holder_city":"","holder_state":""}],"white_pop":10969,"black_pop":12,"other_pop":1,"gisjoin":"G42010100042F","median_income":4492}},{"type":"Feature","geometry":{"type":"Point","coordinates":[-75.15590802,40.07209902]},"properties":{"property_city":"Cheltenham","property_state":"PA","street":"2331 78th Ave","zip":19012,"mortgages":[{"proj_num":3442047,"name":"WIDENER VILLAGE II","units":398,"amount":3151700,"first_payment_date":{"year":1951,"month":3,"day":1},"holder_city":"White Plains","holder_state":"NY"}],"white_pop":10969,"black_pop":12,"other_pop":1,"gisjoin":"G42010100042F","median_income":4492}},{"type":"Feature","geometry":{"type":"Point","coordinates":[-75.15457303,40.07168701]},"properties":{"property_city":"Cheltenham","property_state":"PA","street":"2306 W Cheltenham Ave","zip":19012,"mortgages":[{"proj_num":3442027,"name":"WIDENER VILLAGE I","units":220,"amount":1743000,"first_payment_date":{"year":1950,"month":12,"day":1},"holder_city":"White Plains","holder_state":"NY"}],"white_pop":10969,"black_pop":12,"other_pop":1,"gisjoin":"G42010100042F","median_income":4492}},{"type":"Feature","geometry":{"type":"Point","coordinates":[-75.15403801,39.94255201]},"properties":{"property_city":"Philadelphia","property_state":"PA","street":"702 Rodman Ave","zip":0,"mortgages":[{"proj_num":3440013,"name":"FRANKLIN B STORCH","units":11,"amount":63321,"first_payment_date":{"year":1950,"month":3,"day":1},"holder_name":"BOWERY SAVINGS BANK-FDIC","holder_city":"East Hartford","holder_state":"CT"}],"white_pop":1180,"black_pop":4262,"other_pop":27,"gisjoin":"G42010100007B","median_income":774}},{"type":"Feature","geometry":{"type":"Point","coordinates":[-75.14964698,39.94661892]},"properties":{"property_city":"Philadelphia","property_state":"PA","street":"215 SOUTH 5TH ST","zip":19106,"mortgages":[{"proj_num":3442018,"name":"215 S 5TH ST CORP","units":24,"amount":179400,"first_payment_date":{"year":1950,"month":6,"day":1},"holder_name":"","holder_city":"","holder_state":""}],"white_pop":5619,"black_pop":1354,"other_pop":9,"gisjoin":"G42010100005A","median_income":1806}},{"type":"Feature","geometry":{"type":"Point","coordinates":[-75.14916002,40.07664602]},"properties":{"property_city":"Cheltenham","property_state":"PA","street":"2233 Washington Ln","zip":19012,"mortgages":[{"proj_num":3442046,"name":"WIDENER VILLAGE V","units":280,"amount":2217700,"first_payment_date":{"year":1951,"month":6,"day":1},"holder_city":"White Plains","holder_state":"NY"}],"white_pop":947,"black_pop":10,"other_pop":18,"gisjoin":"G4200910M0025","median_income":0}},{"type":"Feature","geometry":{"type":"Point","coordinates":[-75.12900702,39.93162817]},"properties":{"property_city":"Camden","property_state":"NJ","street":"14 E Chestnut St","zip":8101,"mortgages":[{"proj_num":3542020,"name":"BARDENTOWN MANOR","units":96,"amount":798400,"first_payment_date":{"year":1951,"month":1,"day":1},"holder_city":"New York","holder_state":"NY"}],"white_pop":1533,"black_pop":2111,"other_pop":8,"gisjoin":"G3400070CJ0013","median_income":1833}},{"type":"Feature","geometry":{"type":"Point","coordinates":[-75.11246272,39.91184213]},"properties":{"property_city":"Camden","property_state":"NJ","street":"2553 S 8th St","zip":8101,"mortgages":[{"proj_num":3560001,"name":"CANTERBURY","units":232,"amount":850000,"first_payment_date":{"year":1944,"month":4,"day":1},"holder_city":"East Hartford","holder_state":"CT"},{"proj_num":3542013,"name":"CRESTFAIR APTS","units":160,"amount":1378800,"first_payment_date":{"year":1951,"month":1,"day":1},"holder_city":"Jersey City","holder_state":"NJ"}],"white_pop":3328,"black_pop":30,"other_pop":0,"gisjoin":"G3400070CJ0023","median_income":3122}},{"type":"Feature","geometry":{"type":"Point","coordinates":[-75.11234335,39.91359555]},"properties":{"property_city":"Camden","property_state":"NJ","street":"EVERETT-8TH STS","zip":8104,"mortgages":[{"proj_num":3542042,"name":"EVERETT GDNS INC","units":184,"amount":1326500,"first_payment_date":null,"holder_city":"Ny","holder_state":"No Data Available"}],"white_pop":3328,"black_pop":30,"other_pop":0,"gisjoin":"G3400070CJ0023","median_income":3122}},{"type":"Feature","geometry":{"type":"Point","coordinates":[-75.11000186,39.92334471]},"properties":{"property_city":"Camden","property_state":"NJ","street":"926 Carl Miller Blvd","zip":8101,"mortgages":[{"proj_num":3542054,"name":"SHERIDAN APTS","units":80,"amount":568500,"first_payment_date":{"year":1951,"month":10,"day":1},"holder_name":"","holder_city":"","holder_state":""}],"white_pop":3247,"black_pop":365,"other_pop":3,"gisjoin":"G3400070CJ0019","median_income":2732}},{"type":"Feature","geometry":{"type":"Point","coordinates":[-75.10313798,39.93649701]},"properties":{"property_city":"Camden","property_state":"NJ","street":"1459 Park Blvd","zip":8101,"mortgages":[{"proj_num":3542026,"name":"PK BLVD GDNS APTS","units":24,"amount":194400,"first_payment_date":{"year":1950,"month":5,"day":1},"holder_city":"New York","holder_state":"NY"},{"proj_num":3542050,"name":"PK BLVD GDNS APTS","units":16,"amount":132300,"first_payment_date":{"year":1951,"month":1,"day":1},"holder_name":"","holder_city":"","holder_state":""}],"white_pop":6034,"black_pop":40,"other_pop":0,"gisjoin":"G3400070CJ0020","median_income":3500}},{"type":"Feature","geometry":{"type":"Point","coordinates":[-75.10210902,39.93641901]},"properties":{"property_city":"Camden","property_state":"NJ","street":"1509 Park Blvd","zip":8101,"mortgages":[{"proj_num":3542063,"name":"PK BLVD GDNS 2","units":8,"amount":60600,"first_payment_date":{"year":1951,"month":8,"day":1},"holder_name":"","holder_city":"","holder_state":""}],"white_pop":6034,"black_pop":40,"other_pop":0,"gisjoin":"G3400070CJ0020","median_income":3500}},{"type":"Feature","geometry":{"type":"Point","coordinates":[-75.10157449,39.92381756]},"properties":{"property_city":"Camden","property_state":"NJ","street":"10TH-VAN HOOK STS","zip":8101,"mortgages":[{"proj_num":3542059,"name":"SHERIDAN APTS ANNEX","units":46,"amount":310000,"first_payment_date":null,"holder_city":"Ny","holder_state":"No Data Available"}],"white_pop":4300,"black_pop":10,"other_pop":1,"gisjoin":"G3400070CJ0022","median_income":3451}},{"type":"Feature","geometry":{"type":"Point","coordinates":[-75.09935498,39.92182201]},"properties":{"property_city":"Camden","property_state":"NJ","street":"1352 Browning St","zip":8101,"mortgages":[{"proj_num":3540023,"name":"YANKS APTS","units":16,"amount":124072,"first_payment_date":{"year":1949,"month":3,"day":1},"holder_name":"","holder_city":"","holder_state":""}],"white_pop":4300,"black_pop":10,"other_pop":1,"gisjoin":"G3400070CJ0022","median_income":3451}},{"type":"Feature","geometry":{"type":"Point","coordinates":[-75.09782942,39.90277532]},"properties":{"property_city":"Camden","property_state":"NJ","street":"3288 Livingston Walk","zip":8101,"mortgages":[{"proj_num":3560002,"name":"CRESCENT APTS","units":240,"amount":878000,"first_payment_date":{"year":1944,"month":3,"day":1},"holder_city":"East Hartford","holder_state":"CT"}],"white_pop":7407,"black_pop":10,"other_pop":6,"gisjoin":"G3400070CJ0024","median_income":3677}},{"type":"Feature","geometry":{"type":"Point","coordinates":[-75.09683537,40.11762825]},"properties":{"property_city":"Abington","property_state":"PA","street":"WASHINGTON LANE","zip":19001,"mortgages":[{"proj_num":3442040,"name":"JENKINTOWN GARDNS","units":76,"amount":603500,"first_payment_date":null,"holder_city":"Ny","holder_state":""}],"white_pop":9277,"black_pop":1480,"other_pop":7,"gisjoin":"G4200910M0016","median_income":3505}},{"type":"Feature","geometry":{"type":"Point","coordinates":[-75.09658199,40.04252402]},"properties":{"property_city":"Philadelphia","property_state":"PA","street":"COMLY & TABOR RDS","zip":19154,"mortgages":[{"proj_num":3440007,"name":"COMLY & TABOR APTS","units":26,"amount":168497,"first_payment_date":null,"holder_city":"Ct","holder_state":"No Data Available"}],"white_pop":6738,"black_pop":2,"other_pop":3,"gisjoin":"G42010100035XX","median_income":3849}},{"type":"Feature","geometry":{"type":"Point","coordinates":[-75.09644897,40.043255]},"properties":{"property_city":"Philadelphia","property_state":"PA","street":"6010 Tabor Ave","zip":0,"mortgages":[{"proj_num":3440011,"name":"TABOR CENTRAL COR","units":23,"amount":144113,"first_payment_date":{"year":1949,"month":11,"day":1},"holder_name":"BOWERY SAVINGS BANK-FDIC","holder_city":"East Hartford","holder_state":"CT"}],"white_pop":6738,"black_pop":2,"other_pop":3,"gisjoin":"G42010100035XX","median_income":3849}},{"type":"Feature","geometry":{"type":"Point","coordinates":[-75.09492397,40.02607202]},"properties":{"property_city":"Philadelphia","property_state":"PA","street":"Roosevelt Boulevard and Foulkrod St","zip":0,"mortgages":[{"proj_num":3442024,"name":"FOULKROD GARDENS","units":24,"amount":178700,"first_payment_date":{"year":1950,"month":4,"day":1},"holder_city":"White Plains","holder_state":"NY"}],"white_pop":1315,"black_pop":1,"other_pop":0,"gisjoin":"G42010100035EEE","median_income":0}},{"type":"Feature","geometry":{"type":"Point","coordinates":[-75.09162301,39.90814501]},"properties":{"property_city":"Haddon Twp.","property_state":"NJ","street":"1100 Collings Ave","zip":8107,"mortgages":[{"proj_num":3540012,"name":"LYNNE GDNS APTS","units":16,"amount":115952,"first_payment_date":{"year":1948,"month":10,"day":1},"holder_city":"East Hartford","holder_state":"CT"}],"white_pop":1693,"black_pop":0,"other_pop":2,"gisjoin":"G3400070CJ0030","median_income":3768}},{"type":"Feature","geometry":{"type":"Point","coordinates":[-75.0857289,39.94193232]},"properties":{"property_city":"Camden","property_state":"NJ","street":"342 Marlton Ave","zip":8101,"mortgages":[{"proj_num":3540021,"name":"WASHINGTON PARK","units":24,"amount":194400,"first_payment_date":{"year":1948,"month":11,"day":1},"holder_city":"East Hartford","holder_state":"CT"},{"proj_num":3540025,"name":"WASHINGTON PARK","units":24,"amount":194400,"first_payment_date":{"year":1948,"month":11,"day":1},"holder_city":"East Hartford","holder_state":"CT"},{"proj_num":3540026,"name":"WASHINGTON PARK","units":24,"amount":194400,"first_payment_date":{"year":1948,"month":11,"day":1},"holder_city":"East Hartford","holder_state":"CT"},{"proj_num":3540027,"name":"WASHINGTON PARK","units":24,"amount":194400,"first_payment_date":{"year":1948,"month":11,"day":1},"holder_city":"East Hartford","holder_state":"CT"},{"proj_num":3540028,"name":"WASHINGTON PARK","units":22,"amount":178200,"first_payment_date":{"year":1948,"month":11,"day":1},"holder_city":"East Hartford","holder_state":"CT"},{"proj_num":3540029,"name":"WASHINGTON PARK","units":22,"amount":178200,"first_payment_date":{"year":1948,"month":11,"day":1},"holder_city":"East Hartford","holder_state":"CT"},{"proj_num":3540030,"name":"WASHINGTON PARK","units":24,"amount":194400,"first_payment_date":{"year":1949,"month":3,"day":1},"holder_city":"East Hartford","holder_state":"CT"},{"proj_num":3540031,"name":"WASHINGTON PARK","units":20,"amount":162000,"first_payment_date":{"year":1949,"month":3,"day":1},"holder_city":"East Hartford","holder_state":"CT"},{"proj_num":3540033,"name":"WASHINGTON PARK","units":22,"amount":178200,"first_payment_date":{"year":1949,"month":5,"day":1},"holder_city":"East Hartford","holder_state":"CT"},{"proj_num":3540032,"name":"WASHINGTON PARK","units":24,"amount":194400,"first_payment_date":{"year":1949,"month":5,"day":1},"holder_city":"East Hartford","holder_state":"CT"},{"proj_num":3540037,"name":"WASHINGTON PARK","units":24,"amount":194400,"first_payment_date":{"year":1949,"month":5,"day":1},"holder_city":"East Hartford","holder_state":"CT"},{"proj_num":3540038,"name":"WASHINGTON PARK","units":12,"amount":97200,"first_payment_date":{"year":1949,"month":5,"day":1},"holder_city":"East Hartford","holder_state":"CT"},{"proj_num":3542002,"name":"WASHINGTON PARK","units":24,"amount":194400,"first_payment_date":{"year":1949,"month":10,"day":1},"holder_city":"East Hartford","holder_state":"CT"}],"white_pop":10629,"black_pop":161,"other_pop":5,"gisjoin":"G3400070CJ0005","median_income":3813}},{"type":"Feature","geometry":{"type":"Point","coordinates":[-75.08297397,39.91905699]},"properties":{"property_city":"Collingswood","property_state":"NJ","street":"101 W Browning Rd","zip":8108,"mortgages":[{"proj_num":3540024,"name":"WAYNE GDNS","units":76,"amount":630000,"first_payment_date":{"year":1949,"month":4,"day":1},"holder_city":"East Hartford","holder_state":"CT"}],"white_pop":15783,"black_pop":7,"other_pop":10,"gisjoin":"G3400070CJ0032","median_income":4031}},{"type":"Feature","geometry":{"type":"Point","coordinates":[-75.08146297,39.94819898]},"properties":{"property_city":"Camden","property_state":"NJ","street":"63 N DUDLEY ST","zip":8105,"mortgages":[{"proj_num":3542025,"name":"DUDLEY MANOR","units":12,"amount":101100,"first_payment_date":null,"holder_city":"Nj","holder_state":"No Data Available"}],"white_pop":10629,"black_pop":161,"other_pop":5,"gisjoin":"G3400070CJ0005","median_income":3813}},{"type":"Feature","geometry":{"type":"Point","coordinates":[-75.07839317,39.9505652]},"properties":{"property_city":"Camden","property_state":"NJ","street":"3237 Westfield Ave","zip":8101,"mortgages":[{"proj_num":3540019,"name":"WESTFIELD GDNS","units":72,"amount":515952,"first_payment_date":{"year":1949,"month":10,"day":1},"holder_city":"East Hartford","holder_state":"CT"}],"white_pop":5998,"black_pop":4,"other_pop":1,"gisjoin":"G3400070CJ0006","median_income":3601}},{"type":"Feature","geometry":{"type":"Point","coordinates":[-75.07740108,39.90067876]},"properties":{"property_city":"Oaklyn","property_state":"NJ","street":"26 Oakland Ave","zip":8107,"mortgages":[{"proj_num":3540001,"name":"OAKLAND GDNS","units":100,"amount":596600,"first_payment_date":{"year":1948,"month":2,"day":1},"holder_name":"TRUST COMPANY OF NJ","holder_city":"Jersey City","holder_state":"NJ"}],"white_pop":4886,"black_pop":3,"other_pop":0,"gisjoin":"G3400070CJ0034","median_income":4016}},{"type":"Feature","geometry":{"type":"Point","coordinates":[-75.07543432,39.92376295]},"properties":{"property_city":"Collingswood","property_state":"NJ","street":"290 E Garfield Ave","zip":8108,"mortgages":[{"proj_num":3540011,"name":"HILLCREST GDNS","units":120,"amount":901900,"first_payment_date":{"year":1949,"month":2,"day":1},"holder_city":"Frederick","holder_state":"MD"}],"white_pop":15783,"black_pop":7,"other_pop":10,"gisjoin":"G3400070CJ0032","median_income":4031}},{"type":"Feature","geometry":{"type":"Point","coordinates":[-75.07528328,39.91285684]},"properties":{"property_city":"Collingswood","property_state":"NJ","street":"33 Eldridge Ave","zip":8108,"mortgages":[{"proj_num":3540003,"name":"ELDRIDGE GDNS","units":84,"amount":574600,"first_payment_date":{"year":1948,"month":7,"day":1},"holder_city":"East Hartford","holder_state":"CT"}],"white_pop":15783,"black_pop":7,"other_pop":10,"gisjoin":"G3400070CJ0032","median_income":4031}},{"type":"Feature","geometry":{"type":"Point","coordinates":[-75.07468763,39.92158263]},"properties":{"property_city":"Collingswood","property_state":"NJ","street":"463 Highland Ave","zip":8108,"mortgages":[{"proj_num":3540040,"name":"GARFIELD MNR APTS","units":80,"amount":555800,"first_payment_date":{"year":1949,"month":8,"day":1},"holder_city":"Frederick","holder_state":"MD"}],"white_pop":15783,"black_pop":7,"other_pop":10,"gisjoin":"G3400070CJ0032","median_income":4031}},{"type":"Feature","geometry":{"type":"Point","coordinates":[-75.07458968,39.92154677]},"properties":{"property_city":"Collingswood","property_state":"NJ","street":"467 Highland Ave","zip":8108,"mortgages":[{"proj_num":3542015,"name":"GARFIELD GDNS","units":24,"amount":187600,"first_payment_date":{"year":1950,"month":1,"day":1},"holder_name":"WELLS FARGO BANK NA-PRUDENTIAL","holder_city":"Frederick","holder_state":"MD"}],"white_pop":15783,"black_pop":7,"other_pop":10,"gisjoin":"G3400070CJ0032","median_income":4031}},{"type":"Feature","geometry":{"type":"Point","coordinates":[-75.07122296,39.94570975]},"properties":{"property_city":"Camden","property_state":"NJ","street":"5598 Highland Ave","zip":8101,"mortgages":[{"proj_num":3540017,"name":"HIGHLAND APTS","units":28,"amount":220000,"first_payment_date":{"year":1948,"month":10,"day":1},"holder_city":"Syracuse","holder_state":"NY"}],"white_pop":5998,"black_pop":4,"other_pop":1,"gisjoin":"G3400070CJ0006","median_income":3601}},{"type":"Feature","geometry":{"type":"Point","coordinates":[-75.06927053,39.89991229]},"properties":{"property_city":"Haddonfield","property_state":"NJ","street":"CUTHBERT BLVD-EMERAL AV","zip":8034,"mortgages":[{"proj_num":3540041,"name":"CUTHBERT MANOR","units":80,"amount":648000,"first_payment_date":null,"holder_city":"Ct","holder_state":"No Data Available"}],"white_pop":10591,"black_pop":87,"other_pop":6,"gisjoin":"G3400070CJ0031","median_income":4222}},{"type":"Feature","geometry":{"type":"Point","coordinates":[-75.05385399,39.94934102]},"properties":{"property_city":"Merchantville","property_state":"NJ","street":"56 West Maple Ave","zip":8109,"mortgages":[{"proj_num":3540036,"name":"MORRIS COURT APTS","units":42,"amount":322200,"first_payment_date":{"year":1949,"month":7,"day":1},"holder_name":"MANHATTAN SAVINGS BANK","holder_city":"Brooklyn","holder_state":"NY"}],"white_pop":4171,"black_pop":3,"other_pop":9,"gisjoin":"G3400070CJ0028","median_income":4242}},{"type":"Feature","geometry":{"type":"Point","coordinates":[-75.052879,39.94946599]},"properties":{"property_city":"Merchantville","property_state":"NJ","street":"50 West Maple Avenue","zip":8108,"mortgages":[{"proj_num":3540004,"name":"MAPLEVIEW APTS","units":68,"amount":502600,"first_payment_date":{"year":1948,"month":9,"day":1},"holder_name":"","holder_city":"","holder_state":""}],"white_pop":4171,"black_pop":3,"other_pop":9,"gisjoin":"G3400070CJ0028","median_income":4242}},{"type":"Feature","geometry":{"type":"Point","coordinates":[-75.05093668,39.90629891]},"properties":{"property_city":"Haddonfield","property_state":"NJ","street":"500 Park Blvd","zip":8033,"mortgages":[{"proj_num":3542001,"name":"WALLWORTH PARK","units":208,"amount":1903300,"first_payment_date":{"year":1949,"month":11,"day":1},"holder_city":"East Hartford","holder_state":"CT"}],"white_pop":10591,"black_pop":87,"other_pop":6,"gisjoin":"G3400070CJ0031","median_income":4222}},{"type":"Feature","geometry":{"type":"Point","coordinates":[-75.04879436,39.90669928]},"properties":{"property_city":"Haddon Twp.","property_state":"NJ","street":"304 Crystal Lake Ave","zip":8033,"mortgages":[{"proj_num":3542011,"name":"HADDON HILLS APT","units":208,"amount":1675600,"first_payment_date":{"year":1950,"month":9,"day":1},"holder_name":"","holder_city":"","holder_state":""}],"white_pop":10591,"black_pop":87,"other_pop":6,"gisjoin":"G3400070CJ0031","median_income":4222}},{"type":"Feature","geometry":{"type":"Point","coordinates":[-75.0316349,39.95602623]},"properties":{"property_city":"Pennsauken Twp.","property_state":"NJ","street":"3713 Herbert Ave","zip":8110,"mortgages":[{"proj_num":3540016,"name":"PENN MANOR APTS","units":108,"amount":874800,"first_payment_date":{"year":1951,"month":7,"day":1},"holder_name":"NORTH SIDE SAVINGS BANK","holder_city":"Floral Park","holder_state":"NY"}],"white_pop":5461,"black_pop":286,"other_pop":1,"gisjoin":"G3400070CJ0027","median_income":3244}},{"type":"Feature","geometry":{"type":"Point","coordinates":[-75.01087333,39.96943125]},"properties":{"property_city":"Pennsauken Twp.","property_state":"NJ","street":"46TH-HIGH STS","zip":8110,"mortgages":[{"proj_num":3540002,"name":"PENN GDNS","units":116,"amount":939600,"first_payment_date":null,"holder_city":"Ct","holder_state":"No Data Available"}],"white_pop":6544,"black_pop":8,"other_pop":8,"gisjoin":"G3400050BJ0004","median_income":3320}},{"type":"Feature","geometry":{"type":"Point","coordinates":[-75.00489403,40.00993702]},"properties":{"property_city":"Riverton","property_state":"NJ","street":"813 Cedar St","zip":8077,"mortgages":[{"proj_num":3542028,"name":"CEDAR LANE MANOR","units":36,"amount":290000,"first_payment_date":{"year":1951,"month":3,"day":1},"holder_name":"MIDLANTIC NATIONAL BANK","holder_city":"East Brunswick","holder_state":"NJ"}],"white_pop":2671,"black_pop":89,"other_pop":1,"gisjoin":"G3400050BJ0002","median_income":4292}},{"type":"Feature","geometry":{"type":"Point","coordinates":[-74.98312822,39.95174223]},"properties":{"property_city":"Moorestown-Lenola","property_state":"NJ","street":"12 Marshall St","zip":7111,"mortgages":[{"proj_num":3142062,"name":"PARKWAY INC III","units":435,"amount":3705500,"first_payment_date":{"year":1951,"month":10,"day":1},"holder_city":"Albany","holder_state":"NY"},{"proj_num":3142061,"name":"PARKWAY INC II","units":435,"amount":3705000,"first_payment_date":{"year":1951,"month":6,"day":1},"holder_city":"Albany","holder_state":"NY"}],"white_pop":6544,"black_pop":8,"other_pop":8,"gisjoin":"G3400050BJ0004","median_income":3320}},{"type":"Feature","geometry":{"type":"Point","coordinates":[-74.95461301,40.02934201]},"properties":{"property_city":"Riverside Twp.","property_state":"NJ","street":"729 Ardnt Ave","zip":8075,"mortgages":[{"proj_num":3542055,"name":"RIVERSIDE MANOR","units":78,"amount":559623,"first_payment_date":{"year":1951,"month":12,"day":1},"holder_name":"CROSSLAND SAVINGS FSB","holder_city":"Brooklyn","holder_state":"NY"}],"white_pop":7023,"black_pop":175,"other_pop":1,"gisjoin":"G3400050BJ0007","median_income":3211}},{"type":"Feature","geometry":{"type":"Point","coordinates":[-74.95409098,39.96105401]},"properties":{"property_city":"Moorestown Twp","property_state":"NJ","street":"291 W MAIN ST","zip":8057,"mortgages":[{"proj_num":3540006,"name":"PINE TREE APTS","units":16,"amount":114200,"first_payment_date":null,"holder_city":"Ct","holder_state":""}],"white_pop":8380,"black_pop":734,"other_pop":9,"gisjoin":"G3400050BJ0005","median_income":3412}},{"type":"Feature","geometry":{"type":"Point","coordinates":[-74.94432799,39.967055]},"properties":{"property_city":"Moorestown-Lenola","property_state":"NJ","street":"99 E 2ND ST","zip":8057,"mortgages":[{"proj_num":3540039,"name":"BARBERRY COURT APTS","units":43,"amount":383100,"first_payment_date":null,"holder_city":"Ny","holder_state":""}],"white_pop":8380,"black_pop":734,"other_pop":9,"gisjoin":"G3400050BJ0005","median_income":3412}},{"type":"Feature","geometry":{"type":"Point","coordinates":[-74.80497692,40.23631006]},"properties":{"property_city":"Trenton","property_state":"NJ","street":"1920 RIVERSIDE DR","zip":8618,"mortgages":[{"proj_num":3140071,"name":"BROOKVILLE APTS","units":123,"amount":1183500,"first_payment_date":null,"holder_city":"Ny","holder_state":"No Data Available"}],"white_pop":3968,"black_pop":10,"other_pop":4,"gisjoin":"G34002100012","median_income":5319}},{"type":"Feature","geometry":{"type":"Point","coordinates":[-74.79509097,39.63411499]},"properties":{"property_city":"Hammonton","property_state":"NJ","street":"411 South 3rd Street","zip":8037,"mortgages":[{"proj_num":3540010,"name":"MAJOR APTS","units":24,"amount":174400,"first_payment_date":{"year":1948,"month":8,"day":1},"holder_city":"East Hartford","holder_state":"CT"}]}},{"type":"Feature","geometry":{"type":"Point","coordinates":[-74.784785,40.23776201]},"properties":{"property_city":"Trenton","property_state":"NJ","street":"823 PARKSIDE AVE","zip":8618,"mortgages":[{"proj_num":3142128,"name":"PARK PLAZA","units":30,"amount":255490,"first_payment_date":{"year":1950,"month":10,"day":1},"holder_name":"","holder_city":"","holder_state":""}],"white_pop":3251,"black_pop":150,"other_pop":0,"gisjoin":"G34002100013","median_income":5292}},{"type":"Feature","geometry":{"type":"Point","coordinates":[-74.778557,39.99930902]},"properties":{"property_city":"Mount Holly Twp.","property_state":"NJ","street":"1st Montgomery Drive and Garden Street","zip":8060,"mortgages":[{"proj_num":3542023,"name":"CLOVER HILL GDNS","units":204,"amount":1620000,"first_payment_date":{"year":1950,"month":12,"day":1},"holder_name":"HOME PLACE MORTGAGE LOANS INC","holder_city":"Alexander City","holder_state":"AL"}],"white_pop":7735,"black_pop":463,"other_pop":8,"gisjoin":"G3400050BJ0026","median_income":2931}},{"type":"Feature","geometry":{"type":"Point","coordinates":[-74.73276197,40.22640001]},"properties":{"property_city":"Hamilton Twp","property_state":"NJ","street":"1620 Greenwood Ave","zip":8609,"mortgages":[{"proj_num":3160020,"name":"HAMILTON GDNS","units":174,"amount":672000,"first_payment_date":{"year":1944,"month":6,"day":1},"holder_city":"Jersey City","holder_state":"NJ"}]}},{"type":"Feature","geometry":{"type":"Point","coordinates":[-74.73246131,40.2263006]},"properties":{"property_city":"Trenton","property_state":"NJ","street":"Greenwood Ave & Massachusetts Ave","zip":8650,"mortgages":[{"proj_num":3142130,"name":"GREEWOOD VILG ANX","units":91,"amount":761000,"first_payment_date":{"year":1951,"month":1,"day":1},"holder_name":"BOWERY SAVINGS BANK-FDIC","holder_city":"East Hartford","holder_state":"CT"}]}},{"type":"Feature","geometry":{"type":"Point","coordinates":[-74.72740462,40.23411936]},"properties":{"property_city":"Hamilton Twp","property_state":"NJ","street":"21 Michael Drive","zip":8609,"mortgages":[{"proj_num":3160022,"name":"NOTTINGHAM VILLGE","units":154,"amount":573000,"first_payment_date":{"year":1944,"month":10,"day":1},"holder_city":"Jersey City","holder_state":"NJ"}]}},{"type":"Feature","geometry":{"type":"Point","coordinates":[-74.61603669,40.0364827]},"properties":{"property_city":"Wrightstown","property_state":"NJ","street":"1 MARTHA AVE","zip":8562,"mortgages":[{"proj_num":3540008,"name":"WRIGHTSTOWN COMM APTS","units":94,"amount":732700,"first_payment_date":{"year":1950,"month":8,"day":1},"holder_name":"","holder_city":"","holder_state":""}],"white_pop":1196,"black_pop":3,"other_pop":0,"gisjoin":"G3400050BJ0021","median_income":0}},{"type":"Feature","geometry":{"type":"Point","coordinates":[-74.61586501,40.57643398]},"properties":{"property_city":"Somerville","property_state":"NJ","street":"129 Mercer Street","zip":8876,"mortgages":[{"proj_num":3140002,"name":"BROOKSIDE GDNS","units":443,"amount":3018500,"first_payment_date":{"year":1948,"month":5,"day":1},"holder_city":"East Hartford","holder_state":"CT"}]}},{"type":"Feature","geometry":{"type":"Point","coordinates":[-74.46327777,40.61209174]},"properties":{"property_city":"Plainfield","property_state":"NJ","street":"1275 ROCK AVE","zip":7060,"mortgages":[{"proj_num":3140055,"name":"GREENBROOK VILL","units":58,"amount":442500,"first_payment_date":null,"holder_city":"Ct","holder_state":"No Data Available"}]}},{"type":"Feature","geometry":{"type":"Point","coordinates":[-74.45844298,40.477639]},"properties":{"property_city":"New Brunswick","property_state":"NJ","street":"440 LIVINGSTON AVE","zip":8901,"mortgages":[{"proj_num":3142187,"name":"LIVINGSTON GDNS","units":123,"amount":961500,"first_payment_date":null,"holder_city":"Ny","holder_state":"No Data Available"}]}},{"type":"Feature","geometry":{"type":"Point","coordinates":[-74.43486923,40.49854686]},"properties":{"property_city":"Highland Park","property_state":"NJ","street":"ADELAIDE AVE","zip":8904,"mortgages":[{"proj_num":3142153,"name":"ADELAIDE GDNS","units":200,"amount":1716000,"first_payment_date":null,"holder_city":"Ct","holder_state":""}]}},{"type":"Feature","geometry":{"type":"Point","coordinates":[-74.42728864,40.49759903]},"properties":{"property_city":"Highland Park","property_state":"NJ","street":"115 S 3rd Ave","zip":8904,"mortgages":[{"proj_num":3142309,"name":"HIGHLAND PARK","units":191,"amount":1593000,"first_payment_date":{"year":1953,"month":2,"day":1},"holder_city":"Scarsdale","holder_state":"NY"}]}},{"type":"Feature","geometry":{"type":"Point","coordinates":[-74.42585902,40.49721491]},"properties":{"property_city":"Highland Park","property_state":"NJ","street":"323 Benner St","zip":8904,"mortgages":[{"proj_num":3160035,"name":"HIGHLAND PARK","units":44,"amount":195000,"first_payment_date":{"year":1945,"month":7,"day":1},"holder_city":"Rochester","holder_state":"NY"}]}},{"type":"Feature","geometry":{"type":"Point","coordinates":[-74.42046097,40.48635899]},"properties":{"property_city":"New Brunswick","property_state":"NJ","street":"1 CHESTER CIRCLE","zip":8901,"mortgages":[{"proj_num":3142015,"name":"THIRD RARITAN GDNS","units":142,"amount":990000,"first_payment_date":null,"holder_city":"Ny","holder_state":""}]}},{"type":"Feature","geometry":{"type":"Point","coordinates":[-74.41881975,40.4872845]},"properties":{"property_city":"New Brunswick","property_state":"NJ","street":"10 CHESTER CIRCLE","zip":8901,"mortgages":[{"proj_num":3140096,"name":"RARITAN GDNS I","units":160,"amount":1376000,"first_payment_date":null,"holder_city":"Ny","holder_state":"No Data Available"},{"proj_num":3142014,"name":"RARITAN GDNS 2","units":127,"amount":1128000,"first_payment_date":null,"holder_city":"Ny","holder_state":"No Data Available"}]}},{"type":"Feature","geometry":{"type":"Point","coordinates":[-74.41145302,40.63678201]},"properties":{"property_city":"Plainfield","property_state":"NJ","street":"1227 E FRONT ST","zip":7062,"mortgages":[{"proj_num":3142096,"name":"LELAND GDNS","units":255,"amount":1963000,"first_payment_date":null,"holder_city":"Ct","holder_state":"No Data Available"}]}},{"type":"Feature","geometry":{"type":"Point","coordinates":[-74.31974603,40.71425401]},"properties":{"property_city":"Springfield Twp.","property_state":"NJ","street":"445 Morris Ave","zip":7081,"mortgages":[{"proj_num":3142109,"name":"SPRINGBROOK GDNS","units":60,"amount":481000,"first_payment_date":{"year":1950,"month":9,"day":1},"holder_name":"DOLLAR-DRY DOCK BANK","holder_city":"White Plains","holder_state":"NY"}]}},{"type":"Feature","geometry":{"type":"Point","coordinates":[-74.31909027,40.65622838]},"properties":{"property_city":"Garwood","property_state":"NJ","street":"72 3rd Ave","zip":7027,"mortgages":[{"proj_num":3142122,"name":"STEPHANIE GDNS","units":35,"amount":228000,"first_payment_date":{"year":1950,"month":7,"day":1},"holder_city":"Kenilworth","holder_state":"NJ"}]}},{"type":"Feature","geometry":{"type":"Point","coordinates":[-74.31100899,40.70824201]},"properties":{"property_city":"Springfield Twp.","property_state":"NJ","street":"65 Wabeno Ave","zip":7081,"mortgages":[{"proj_num":3142277,"name":"GEN GREENE VILLAGE","units":181,"amount":1307500,"first_payment_date":{"year":1952,"month":2,"day":1},"holder_name":"DOLLAR-DRY DOCK BANK","holder_city":"White Plains","holder_state":"NY"}]}},{"type":"Feature","geometry":{"type":"Point","coordinates":[-74.24420468,40.7307816]},"properties":{"property_city":"South Orange Villa","property_state":"NJ","street":"IRVINGTON AVE-PROSPECT","zip":7079,"mortgages":[{"proj_num":3142124,"name":"VILLAGE COURT","units":30,"amount":241000,"first_payment_date":{"year":1950,"month":8,"day":1},"holder_name":"","holder_city":"","holder_state":""}]}},{"type":"Feature","geometry":{"type":"Point","coordinates":[-74.243232,40.762933]},"properties":{"property_city":"Orange Twp","property_state":"NJ","street":"467 LINCOLN AVE","zip":7051,"mortgages":[{"proj_num":3142108,"name":"467 LINCOLN AVE","units":49,"amount":394000,"first_payment_date":null,"holder_city":"Ny","holder_state":"No Data Available"}]}},{"type":"Feature","geometry":{"type":"Point","coordinates":[-74.24225903,40.7182]},"properties":{"property_city":"Irvington Twp","property_state":"NJ","street":"831 CHANCELLOR AVE","zip":7111,"mortgages":[{"proj_num":3142248,"name":"PARK HILL APTS","units":26,"amount":203500,"first_payment_date":{"year":1950,"month":10,"day":1},"holder_name":"","holder_city":"","holder_state":""}]}},{"type":"Feature","geometry":{"type":"Point","coordinates":[-74.24080996,40.661056]},"properties":{"property_city":"Elizabeth","property_state":"NJ","street":"923-925 JERSEY AVE","zip":7202,"mortgages":[{"proj_num":3140073,"name":"ELROSE GDNS","units":24,"amount":191500,"first_payment_date":{"year":1948,"month":9,"day":1},"holder_name":"","holder_city":"","holder_state":""}],"white_pop":null,"black_pop":null,"other_pop":null,"gisjoin":"G34003900020","median_income":null}},{"type":"Feature","geometry":{"type":"Point","coordinates":[-74.23917298,40.71492]},"properties":{"property_city":"Irvington Twp","property_state":"NJ","street":"391-419 UNION AVE","zip":7111,"mortgages":[{"proj_num":3142070,"name":"RUTGERS ARMS","units":64,"amount":512500,"first_payment_date":null,"holder_city":"Ct","holder_state":""}]}},{"type":"Feature","geometry":{"type":"Point","coordinates":[-74.23843725,39.56313599]},"properties":{"property_city":"Beach Haven","property_state":"NJ","street":"10TH-BEACH AVES","zip":8003,"mortgages":[{"proj_num":3540034,"name":"BEACH MANOR APTS","units":24,"amount":196200,"first_payment_date":null,"holder_city":"Ny","holder_state":""}]}},{"type":"Feature","geometry":{"type":"Point","coordinates":[-74.23646504,40.763802]},"properties":{"property_city":"Orange Twp","property_state":"NJ","street":"349-361 S CENTER ST","zip":7050,"mortgages":[{"proj_num":3142085,"name":"HIGHLAND GDNS","units":49,"amount":401000,"first_payment_date":{"year":1950,"month":9,"day":1},"holder_name":"","holder_city":"","holder_state":""}]}},{"type":"Feature","geometry":{"type":"Point","coordinates":[-74.23539702,40.77738999]},"properties":{"property_city":"South Orange Villa","property_state":"NJ","street":"487 LINDEN PL","zip":7052,"mortgages":[{"proj_num":3142208,"name":"RIDGE GDN APTS","units":102,"amount":889500,"first_payment_date":null,"holder_city":"Ma","holder_state":""}]}},{"type":"Feature","geometry":{"type":"Point","coordinates":[-74.2347566,40.77135662]},"properties":{"property_city":"Orange Twp","property_state":"NJ","street":"67-73 LINCOLN AVE","zip":7104,"mortgages":[{"proj_num":3142076,"name":"LINCOLN APTS","units":23,"amount":187478,"first_payment_date":null,"holder_city":"Ny","holder_state":""}]}},{"type":"Feature","geometry":{"type":"Point","coordinates":[-74.23341696,40.77467701]},"properties":{"property_city":"Orange Twp","property_state":"NJ","street":"33 HIGH ST","zip":7050,"mortgages":[{"proj_num":3140113,"name":"ESSEX GDNS","units":26,"amount":290000,"first_payment_date":null,"holder_city":"Ct","holder_state":""}]}},{"type":"Feature","geometry":{"type":"Point","coordinates":[-74.23179,40.72419]},"properties":{"property_city":"Irvington Twp","property_state":"NJ","street":"221 Massachusetts Avenue","zip":8690,"mortgages":[{"proj_num":3160018,"name":"FAIRLAWN GDNS","units":80,"amount":303000,"first_payment_date":{"year":1944,"month":1,"day":1},"holder_city":"East Hartford","holder_state":"CT"},{"proj_num":3142009,"name":"SUBURBAN TERRACE","units":47,"amount":404000,"first_payment_date":{"year":1950,"month":9,"day":1},"holder_city":"Brooklyn","holder_state":"NY"},{"proj_num":3140115,"name":"HILLCREST MANOR","units":156,"amount":1355000,"first_payment_date":{"year":1949,"month":10,"day":1},"holder_name":"","holder_city":"","holder_state":""}]}},{"type":"Feature","geometry":{"type":"Point","coordinates":[-74.22917798,40.70654199]},"properties":{"property_city":"Hillside Twp.","property_state":"NJ","street":"1504 Schley St","zip":7205,"mortgages":[{"proj_num":3160038,"name":"MONROE GDNS","units":160,"amount":745000,"first_payment_date":{"year":1946,"month":1,"day":1},"holder_city":"Jersey City","holder_state":"NJ"}]}},{"type":"Feature","geometry":{"type":"Point","coordinates":[-74.22706611,40.70870077]},"properties":{"property_city":"Newark","property_state":"NJ","street":"49-53 FIELD PLACE","zip":7112,"mortgages":[{"proj_num":3140028,"name":"REX BUILDING","units":9,"amount":72000,"first_payment_date":null,"holder_city":"Ct","holder_state":""}],"white_pop":null,"black_pop":null,"other_pop":null,"gisjoin":"G34001300045","median_income":null}},{"type":"Feature","geometry":{"type":"Point","coordinates":[-74.226924,40.75997599]},"properties":{"property_city":"East Orange","property_state":"NJ","street":"266 S HARRISON ST","zip":7019,"mortgages":[{"proj_num":3142046,"name":"266 S HARRISON ST","units":24,"amount":215500,"first_payment_date":{"year":1949,"month":5,"day":1},"holder_name":"","holder_city":"","holder_state":""}]}},{"type":"Feature","geometry":{"type":"Point","coordinates":[-74.22682501,40.75106498]},"properties":{"property_city":"East Orange","property_state":"NJ","street":"139 HALSTEAD ST","zip":7018,"mortgages":[{"proj_num":3142083,"name":"139 HALSTEAD ST APTS","units":24,"amount":182000,"first_payment_date":null,"holder_city":"Ct","holder_state":""}]}},{"type":"Feature","geometry":{"type":"Point","coordinates":[-74.22680397,40.65557201]},"properties":{"property_city":"Elizabeth","property_state":"NJ","street":"1055 S ELMORA AVE","zip":7202,"mortgages":[{"proj_num":3142338,"name":"DAVID GDNS","units":48,"amount":312500,"first_payment_date":null,"holder_city":"Fl","holder_state":""}],"white_pop":null,"black_pop":null,"other_pop":null,"gisjoin":"G34003900020","median_income":null}},{"type":"Feature","geometry":{"type":"Point","coordinates":[-74.22549061,40.76177289]},"properties":{"property_city":"East Orange","property_state":"NJ","street":"210 S HARRISON ST","zip":7018,"mortgages":[{"proj_num":3142106,"name":"210 S HARRISON","units":32,"amount":270000,"first_payment_date":null,"holder_city":"Ct","holder_state":""}]}},{"type":"Feature","geometry":{"type":"Point","coordinates":[-74.2230932,40.66477345]},"properties":{"property_city":"Elizabeth","property_state":"NJ","street":"127 CHILTON ST","zip":7202,"mortgages":[{"proj_num":3140036,"name":"CHILTON HALL","units":125,"amount":968000,"first_payment_date":null,"holder_city":"Ct","holder_state":"No Data Available"}],"white_pop":null,"black_pop":null,"other_pop":null,"gisjoin":"G34003900019","median_income":null}},{"type":"Feature","geometry":{"type":"Point","coordinates":[-74.22228696,40.66415898]},"properties":{"property_city":"Elizabeth","property_state":"NJ","street":"147 W JERSEY ST","zip":7202,"mortgages":[{"proj_num":3142092,"name":"147 W JERSEY ST","units":31,"amount":245000,"first_payment_date":null,"holder_city":"Ct","holder_state":"No Data Available"}],"white_pop":null,"black_pop":null,"other_pop":null,"gisjoin":"G34003900019","median_income":null}},{"type":"Feature","geometry":{"type":"Point","coordinates":[-74.22086398,40.80179098]},"properties":{"property_city":"Montclair","property_state":"NJ","street":"25 HIGH ST","zip":7042,"mortgages":[{"proj_num":3142268,"name":"MONTCLAIR COURT","units":51,"amount":346500,"first_payment_date":null,"holder_city":"Ny","holder_state":""}]}},{"type":"Feature","geometry":{"type":"Point","coordinates":[-74.220179,40.77457002]},"properties":{"property_city":"East Orange","property_state":"NJ","street":"110 WASHINGTON ST","zip":7019,"mortgages":[{"proj_num":3142220,"name":"110 WASHINGTON ST","units":101,"amount":908500,"first_payment_date":{"year":1953,"month":5,"day":1},"holder_name":"","holder_city":"","holder_state":""}]}},{"type":"Feature","geometry":{"type":"Point","coordinates":[-74.21919796,40.09376692]},"properties":{"property_city":"Lakewood","property_state":"NJ","street":"408 FOREST AVE","zip":8701,"mortgages":[{"proj_num":3542010,"name":"LAKEWOOD GDNS","units":86,"amount":518200,"first_payment_date":null,"holder_city":"Ny","holder_state":"No Data Available"}]}},{"type":"Feature","geometry":{"type":"Point","coordinates":[-74.21710198,40.75805205]},"properties":{"property_city":"East Orange","property_state":"NJ","street":"76 CARNEGIE AVE","zip":7018,"mortgages":[{"proj_num":3142087,"name":"76 CARNEGIE AVE","units":32,"amount":261000,"first_payment_date":null,"holder_city":"Ct","holder_state":""}]}},{"type":"Feature","geometry":{"type":"Point","coordinates":[-74.21558303,40.706386]},"properties":{"property_city":"Newark","property_state":"NJ","street":"165 CHANCELLOR AVE","zip":7112,"mortgages":[{"proj_num":3142213,"name":"165 CHANCELLOR AVE","units":39,"amount":320000,"first_payment_date":null,"holder_city":"Fl","holder_state":"No Data Available"}],"white_pop":null,"black_pop":null,"other_pop":null,"gisjoin":"G34001300047","median_income":null}},{"type":"Feature","geometry":{"type":"Point","coordinates":[-74.21511499,40.75040399]},"properties":{"property_city":"East Orange","property_state":"NJ","street":"151 S MUNN AVE","zip":7018,"mortgages":[{"proj_num":3142145,"name":"HENBERR ARMS","units":49,"amount":410000,"first_payment_date":null,"holder_city":"Ct","holder_state":""}]}},{"type":"Feature","geometry":{"type":"Point","coordinates":[-74.21462901,40.70578699]},"properties":{"property_city":"Newark","property_state":"NJ","street":"129 CHANCELLOR AVE","zip":7112,"mortgages":[{"proj_num":3142093,"name":"PARKSTONE APTS","units":49,"amount":405000,"first_payment_date":{"year":1950,"month":9,"day":1},"holder_name":"","holder_city":"","holder_state":""}],"white_pop":null,"black_pop":null,"other_pop":null,"gisjoin":"G34001300047","median_income":null}},{"type":"Feature","geometry":{"type":"Point","coordinates":[-74.21405054,40.68142897]},"properties":{"property_city":"Elizabeth","property_state":"NJ","street":"N BROAD ST","zip":7208,"mortgages":[{"proj_num":3140104,"name":"TEMPLETON ARMS","units":104,"amount":857000,"first_payment_date":null,"holder_city":"Ct","holder_state":"No Data Available"}],"white_pop":null,"black_pop":null,"other_pop":null,"gisjoin":"G34003900016","median_income":null}},{"type":"Feature","geometry":{"type":"Point","coordinates":[-74.21395312,40.68135016]},"properties":{"property_city":"Elizabeth","property_state":"NJ","street":"755 N BROAD ST","zip":7208,"mortgages":[{"proj_num":3142214,"name":"775 N BROAD ST","units":116,"amount":1005500,"first_payment_date":{"year":1952,"month":3,"day":1},"holder_name":"","holder_city":"","holder_state":""}],"white_pop":null,"black_pop":null,"other_pop":null,"gisjoin":"G34003900016","median_income":null}},{"type":"Feature","geometry":{"type":"Point","coordinates":[-74.21307802,40.76977301]},"properties":{"property_city":"East Orange","property_state":"NJ","street":"66 MELMORE GDNS","zip":7017,"mortgages":[{"proj_num":3142079,"name":"MELMORE GDNS","units":39,"amount":325000,"first_payment_date":{"year":1950,"month":6,"day":1},"holder_name":"","holder_city":"","holder_state":""}]}},{"type":"Feature","geometry":{"type":"Point","coordinates":[-74.21275397,40.68163999]},"properties":{"property_city":"Elizabeth","property_state":"NJ","street":"1380 NORTH AVE","zip":7208,"mortgages":[{"proj_num":3142249,"name":"HANCOCK COURT","units":130,"amount":1158000,"first_payment_date":{"year":1952,"month":2,"day":1},"holder_name":"","holder_city":"","holder_state":""}],"white_pop":null,"black_pop":null,"other_pop":null,"gisjoin":"G34003900016","median_income":null}},{"type":"Feature","geometry":{"type":"Point","coordinates":[-74.21231803,40.77144298]},"properties":{"property_city":"East Orange","property_state":"NJ","street":"180 PROSPECT ST","zip":7017,"mortgages":[{"proj_num":3142002,"name":"180 PROSPECT ST","units":60,"amount":492000,"first_payment_date":null,"holder_city":"Ny","holder_state":"No Data Available"}]}},{"type":"Feature","geometry":{"type":"Point","coordinates":[-74.21166902,40.75503302]},"properties":{"property_city":"East Orange","property_state":"NJ","street":"70 S MUNN AVE","zip":7018,"mortgages":[{"proj_num":3142113,"name":"ANDREA TOWERS CONDO","units":206,"amount":1841500,"first_payment_date":{"year":1953,"month":8,"day":1},"holder_name":"","holder_city":"","holder_state":""}]}},{"type":"Feature","geometry":{"type":"Point","coordinates":[-74.21155997,40.76525102]},"properties":{"property_city":"East Orange","property_state":"NJ","street":"75 N WALNUT ST","zip":7017,"mortgages":[{"proj_num":3142067,"name":"HADLEY HOUSE","units":43,"amount":296000,"first_payment_date":null,"holder_city":"Ct","holder_state":""}]}},{"type":"Feature","geometry":{"type":"Point","coordinates":[-74.21104801,40.77406698]},"properties":{"property_city":"East Orange","property_state":"NJ","street":"255 PROSPECT ST","zip":7019,"mortgages":[{"proj_num":3142201,"name":"255 PROSPECT ST","units":45,"amount":381000,"first_payment_date":null,"holder_city":"Ct","holder_state":""}]}},{"type":"Feature","geometry":{"type":"Point","coordinates":[-74.21056374,40.76717423]},"properties":{"property_city":"East Orange","property_state":"NJ","street":"66 SUMMIT ST","zip":7017,"mortgages":[{"proj_num":3142217,"name":"66 SUMMIT ST APTS","units":24,"amount":148500,"first_payment_date":null,"holder_city":"Fl","holder_state":""}]}},{"type":"Feature","geometry":{"type":"Point","coordinates":[-74.209911,40.76745898]},"properties":{"property_city":"East Orange","property_state":"NJ","street":"151 N WALNUT ST","zip":7017,"mortgages":[{"proj_num":3142203,"name":"ESSEX HOUSE","units":32,"amount":263000,"first_payment_date":null,"holder_city":"Fl","holder_state":""}]}},{"type":"Feature","geometry":{"type":"Point","coordinates":[-74.20741101,40.68818701]},"properties":{"property_city":"Elizabeth","property_state":"NJ","street":"1001 SHERIDAN AVE","zip":7208,"mortgages":[{"proj_num":3142232,"name":"SHERIDAN GDNS I","units":159,"amount":945000,"first_payment_date":null,"holder_city":"Ct","holder_state":""},{"proj_num":3142265,"name":"SHERIDAN GDNS II","units":131,"amount":797000,"first_payment_date":null,"holder_city":"Ct","holder_state":""}],"white_pop":null,"black_pop":null,"other_pop":null,"gisjoin":"G34003900016","median_income":null}},{"type":"Feature","geometry":{"type":"Point","coordinates":[-74.20529701,40.77896599]},"properties":{"property_city":"East Orange","property_state":"NJ","street":"444 PROSPECT ST","zip":7019,"mortgages":[{"proj_num":3142051,"name":"444 PROSPECT ST","units":30,"amount":261500,"first_payment_date":null,"holder_city":"Ct","holder_state":"No Data Available"}]}},{"type":"Feature","geometry":{"type":"Point","coordinates":[-74.18124296,40.72884502]},"properties":{"property_city":"Newark","property_state":"NJ","street":"60-70 CRAWFORD ST","zip":7102,"mortgages":[{"proj_num":3142293,"name":"URBAN MANOR","units":35,"amount":223000,"first_payment_date":null,"holder_city":"Ny","holder_state":""}],"white_pop":null,"black_pop":null,"other_pop":null,"gisjoin":"G34001300081","median_income":null}},{"type":"Feature","geometry":{"type":"Point","coordinates":[-74.17363379,40.85218346]},"properties":{"property_city":"Clifton","property_state":"NJ","street":"Allwood Rd & Broad St","zip":7015,"mortgages":[{"proj_num":3142156,"name":"RICHFIELD VILLAGE","units":109,"amount":694956,"first_payment_date":{"year":1951,"month":5,"day":1},"holder_city":"East Hartford","holder_state":"CT"},{"proj_num":3142164,"name":"RICHFIELD VILLAGE 3","units":227,"amount":1485456,"first_payment_date":{"year":1951,"month":8,"day":1},"holder_city":"East Hartford","holder_state":"CT"},{"proj_num":3142157,"name":"RICHFIELD VILLAGE 1","units":119,"amount":663000,"first_payment_date":{"year":1950,"month":11,"day":1},"holder_city":"East Hartford","holder_state":"CT"},{"proj_num":3142165,"name":"RICHFIELD VILLAGE 4","units":103,"amount":650971,"first_payment_date":{"year":1951,"month":5,"day":1},"holder_city":"East Hartford","holder_state":"CT"},{"proj_num":3142129,"name":"STYERTOWN SEC 2","units":125,"amount":849500,"first_payment_date":{"year":1951,"month":4,"day":1},"holder_name":"","holder_city":"","holder_state":""}],"white_pop":9913,"black_pop":19,"other_pop":0,"gisjoin":"G3400310CL0043","median_income":4646}},{"type":"Feature","geometry":{"type":"Point","coordinates":[-74.17260074,40.90992722]},"properties":{"property_city":"Montclair","property_state":"NJ","street":"12 Marshall St","zip":7111,"mortgages":[{"proj_num":3142060,"name":"PARKWAY INC I","units":435,"amount":3484000,"first_payment_date":{"year":1952,"month":4,"day":1},"holder_city":"Albany","holder_state":"NY"}],"white_pop":3700,"black_pop":88,"other_pop":6,"gisjoin":"G3400310PT0020","median_income":2740}},{"type":"Feature","geometry":{"type":"Point","coordinates":[-74.17195799,40.76435202]},"properties":{"property_city":"Newark","property_state":"NJ","street":"352 MT PROSPECT AVE","zip":7104,"mortgages":[{"proj_num":3142301,"name":"CROMWELL TERRACE","units":292,"amount":2605500,"first_payment_date":null,"holder_city":"Ny","holder_state":""}],"white_pop":null,"black_pop":null,"other_pop":null,"gisjoin":"G34001300094","median_income":null}},{"type":"Feature","geometry":{"type":"Point","coordinates":[-74.17104998,40.719724]},"properties":{"property_city":"Irvington Twp","property_state":"NJ","street":"120 Harper St.","zip":8904,"mortgages":[{"proj_num":3160036,"name":"HARPER GDNS","units":44,"amount":200000,"first_payment_date":{"year":1945,"month":8,"day":1},"holder_city":"Fair Lawn","holder_state":"NJ"}],"white_pop":null,"black_pop":null,"other_pop":null,"gisjoin":"G34001300068","median_income":null}},{"type":"Feature","geometry":{"type":"Point","coordinates":[-74.17084157,40.85482753]},"properties":{"property_city":"Clifton","property_state":"NJ","street":"168A RICHFIELD TERRACE","zip":7012,"mortgages":[{"proj_num":3142234,"name":"RICHFIELD VILLAGE 5","units":135,"amount":864000,"first_payment_date":null,"holder_city":"Ct","holder_state":"No Data Available"},{"proj_num":3142235,"name":"RICHFIELD VILLAGE 6","units":229,"amount":1431000,"first_payment_date":null,"holder_city":"Ct","holder_state":"No Data Available"},{"proj_num":3142320,"name":"RICHFIELD VILLAGE 2","units":99,"amount":650000,"first_payment_date":{"year":1953,"month":8,"day":1},"holder_name":"","holder_city":"","holder_state":""},{"proj_num":3142321,"name":"RICHFIELD VILLAGE 7","units":159,"amount":1049500,"first_payment_date":{"year":1953,"month":7,"day":1},"holder_name":"","holder_city":"","holder_state":""}],"white_pop":9913,"black_pop":19,"other_pop":0,"gisjoin":"G3400310CL0043","median_income":4646}},{"type":"Feature","geometry":{"type":"Point","coordinates":[-74.16417715,40.8464621]},"properties":{"property_city":"Clifton","property_state":"NJ","street":"570-670 ALLWOOD RD","zip":7012,"mortgages":[{"proj_num":3142068,"name":"STYERTOWNE ONE","units":125,"amount":865500,"first_payment_date":{"year":1950,"month":10,"day":1},"holder_name":"","holder_city":"","holder_state":""}],"white_pop":9913,"black_pop":19,"other_pop":0,"gisjoin":"G3400310CL0043","median_income":4646}},{"type":"Feature","geometry":{"type":"Point","coordinates":[-74.16009026,40.88128763]},"properties":{"property_city":"Clifton","property_state":"NJ","street":"90 HAZEL ST","zip":7011,"mortgages":[{"proj_num":3140019,"name":"FRANKLIN GDNS","units":173,"amount":1226000,"first_payment_date":{"year":1948,"month":11,"day":1},"holder_name":"","holder_city":"","holder_state":""}],"white_pop":8421,"black_pop":2,"other_pop":0,"gisjoin":"G3400310CL0046","median_income":4300}},{"type":"Feature","geometry":{"type":"Point","coordinates":[-74.15905397,40.778557]},"properties":{"property_city":"Newark","property_state":"NJ","street":"36 IRVING ST","zip":7104,"mortgages":[{"proj_num":3142224,"name":"IRVING GDNS","units":28,"amount":220000,"first_payment_date":null,"holder_city":"Va","holder_state":""}],"white_pop":null,"black_pop":null,"other_pop":null,"gisjoin":"G34001300097","median_income":null}},{"type":"Feature","geometry":{"type":"Point","coordinates":[-74.1588215,40.87808472]},"properties":{"property_city":"Clifton","property_state":"NJ","street":"550 Piaget Ave","zip":7015,"mortgages":[{"proj_num":3160004,"name":"CLIFTON COLONIAL","units":152,"amount":603000,"first_payment_date":{"year":1943,"month":10,"day":1},"holder_city":"Jersey City","holder_state":"NJ"}],"white_pop":8421,"black_pop":2,"other_pop":0,"gisjoin":"G3400310CL0046","median_income":4300}},{"type":"Feature","geometry":{"type":"Point","coordinates":[-74.15604999,40.86804448]},"properties":{"property_city":"Clifton","property_state":"NJ","street":"765 CLIFTON AVE","zip":7013,"mortgages":[{"proj_num":3140029,"name":"MAPLE GDNS","units":32,"amount":246200,"first_payment_date":null,"holder_city":"Ct","holder_state":""}],"white_pop":5025,"black_pop":2,"other_pop":0,"gisjoin":"G3400310CL0045","median_income":3900}},{"type":"Feature","geometry":{"type":"Point","coordinates":[-74.15486338,40.88170445]},"properties":{"property_city":"Clifton","property_state":"NJ","street":"90 MARILYN PL","zip":7011,"mortgages":[{"proj_num":3140057,"name":"JEFFERSON GDNS","units":128,"amount":921500,"first_payment_date":null,"holder_city":"Ny","holder_state":"No Data Available"}],"white_pop":8421,"black_pop":2,"other_pop":0,"gisjoin":"G3400310CL0046","median_income":4300}},{"type":"Feature","geometry":{"type":"Point","coordinates":[-74.15341734,40.84806171]},"properties":{"property_city":"Clifton","property_state":"NJ","street":"BLOOMFIELD AVE-MARKET","zip":7012,"mortgages":[{"proj_num":3142166,"name":"STYERTOWN SEC 3","units":91,"amount":659000,"first_payment_date":null,"holder_city":"Ny","holder_state":""}],"white_pop":8759,"black_pop":70,"other_pop":0,"gisjoin":"G3400310CL0044","median_income":3920}},{"type":"Feature","geometry":{"type":"Point","coordinates":[-74.13457243,40.86867268]},"properties":{"property_city":"Passaic Twp","property_state":"NJ","street":"SUMMER ST","zip":7055,"mortgages":[{"proj_num":3142117,"name":"SUMMER GDNS","units":100,"amount":809000,"first_payment_date":null,"holder_city":"Ct","holder_state":""}],"white_pop":4881,"black_pop":913,"other_pop":4,"gisjoin":"G3400310PA0055","median_income":3393}},{"type":"Feature","geometry":{"type":"Point","coordinates":[-74.11916659,40.91978708]},"properties":{"property_city":"Elmwood Park","property_state":"NJ","street":"14TH AVE-E 53RD ST","zip":7407,"mortgages":[{"proj_num":3142034,"name":"ELMWOOD TERRACE","units":296,"amount":2516000,"first_payment_date":null,"holder_city":"Ct","holder_state":""}]}},{"type":"Feature","geometry":{"type":"Point","coordinates":[-74.11684463,40.56291225]},"properties":{"property_city":"New York-Staten Is","property_state":"NY","street":"2862 HYLAN BLVD","zip":10306,"mortgages":[{"proj_num":1242013,"name":"CAROLINA GARDENS","units":176,"amount":1495400,"first_payment_date":null,"holder_city":"Ny","holder_state":""}],"white_pop":288,"black_pop":0,"other_pop":1,"gisjoin":"G36008500130","median_income":0}},{"type":"Feature","geometry":{"type":"Point","coordinates":[-74.11117,40.681434]},"properties":{"property_city":"Bayonne","property_state":"NJ","street":"1034 KENNEDY BLVD","zip":7002,"mortgages":[{"proj_num":3142296,"name":"PARK TOWERS APTS","units":52,"amount":407000,"first_payment_date":null,"holder_city":"Va","holder_state":""}],"white_pop":null,"black_pop":null,"other_pop":null,"gisjoin":"G3400170C0002","median_income":null}},{"type":"Feature","geometry":{"type":"Point","coordinates":[-74.10710444,40.68111046]},"properties":{"property_city":"Bayonne","property_state":"NJ","street":"965 AVE C","zip":7002,"mortgages":[{"proj_num":3142200,"name":"JAY-KEN ARMS","units":17,"amount":134000,"first_payment_date":null,"holder_city":"Va","holder_state":""}],"white_pop":null,"black_pop":null,"other_pop":null,"gisjoin":"G3400170C0004","median_income":null}},{"type":"Feature","geometry":{"type":"Point","coordinates":[-74.10475324,40.68650255]},"properties":{"property_city":"Bayonne","property_state":"NJ","street":"AVE B-W 53RD ST","zip":7002,"mortgages":[{"proj_num":3142080,"name":"SPEEDWAY GDN APTS","units":25,"amount":198000,"first_payment_date":null,"holder_city":"Va","holder_state":""}],"white_pop":null,"black_pop":null,"other_pop":null,"gisjoin":"G3400170C0001","median_income":null}},{"type":"Feature","geometry":{"type":"Point","coordinates":[-74.09536148,40.61926127]},"properties":{"property_city":"New York-Staten Is","property_state":"NY","street":"160 Arlo Rd Staten Island, NY","zip":0,"mortgages":[{"proj_num":1242078,"name":"GRYMES HILL MANOR","units":152,"amount":1314900,"first_payment_date":{"year":1951,"month":1,"day":1},"holder_name":"","holder_city":"","holder_state":""}],"white_pop":356,"black_pop":0,"other_pop":0,"gisjoin":"G36008500039","median_income":0}},{"type":"Feature","geometry":{"type":"Point","coordinates":[-74.09180571,40.61971712]},"properties":{"property_city":"New York-Staten Is","property_state":"NY","street":"42 Arlo Rd, Staten Island, NY","zip":0,"mortgages":[{"proj_num":1242248,"name":"GRYMER HILL APTS","units":416,"amount":3571700,"first_payment_date":{"year":1951,"month":2,"day":1},"holder_city":"New York","holder_state":"NY"}],"white_pop":356,"black_pop":0,"other_pop":0,"gisjoin":"G36008500039","median_income":0}},{"type":"Feature","geometry":{"type":"Point","coordinates":[-74.07724601,40.85071299]},"properties":{"property_city":"Hasbrouck Heights","property_state":"NJ","street":"20 Terrace Ave","zip":7604,"mortgages":[{"proj_num":3142146,"name":"SKYLINE APTS","units":123,"amount":965000,"first_payment_date":{"year":1951,"month":4,"day":1},"holder_city":"White Plains","holder_state":"NY"}]}},{"type":"Feature","geometry":{"type":"Point","coordinates":[-74.07671031,40.8554296]},"properties":{"property_city":"Hasbrouck Heights","property_state":"NJ","street":"118 Terrace Ave","zip":7604,"mortgages":[{"proj_num":3142071,"name":"PARK TERR","units":69,"amount":571000,"first_payment_date":{"year":1950,"month":6,"day":1},"holder_city":"Scarsdale","holder_state":"NY"}]}},{"type":"Feature","geometry":{"type":"Point","coordinates":[-74.07267804,40.72537998]},"properties":{"property_city":"Jersey City","property_state":"NJ","street":"2600 JFK BLVD","zip":7306,"mortgages":[{"proj_num":3142063,"name":"DUNCAN TERRACE","units":127,"amount":1036000,"first_payment_date":null,"holder_city":"Ct","holder_state":"No Data Available"}],"white_pop":null,"black_pop":null,"other_pop":null,"gisjoin":"G34001700028","median_income":null}},{"type":"Feature","geometry":{"type":"Point","coordinates":[-74.07114771,40.86817551]},"properties":{"property_city":"Hasbrouck Heights","property_state":"NJ","street":"210 Lawrence Ave","zip":7604,"mortgages":[{"proj_num":3142305,"name":"VIRGINIA GDNS","units":16,"amount":112000,"first_payment_date":{"year":1951,"month":9,"day":1},"holder_city":"Sanibel","holder_state":"FL"}]}},{"type":"Feature","geometry":{"type":"Point","coordinates":[-74.07080703,40.86992699]},"properties":{"property_city":"Hasbrouck Heights","property_state":"NJ","street":"451 Boulevard","zip":7604,"mortgages":[{"proj_num":3140116,"name":"GRAND VIEW GDNS","units":42,"amount":327500,"first_payment_date":{"year":1949,"month":6,"day":1},"holder_city":"East Hartford","holder_state":"CT"}]}},{"type":"Feature","geometry":{"type":"Point","coordinates":[-74.07003511,40.87135708]},"properties":{"property_city":"Hasbrouck Heights","property_state":"NJ","street":"398 Church Street","zip":7604,"mortgages":[{"proj_num":3142297,"name":"BLVD APTS","units":187,"amount":1332000,"first_payment_date":{"year":1953,"month":1,"day":1},"holder_city":"Boston","holder_state":"MA"}]}},{"type":"Feature","geometry":{"type":"Point","coordinates":[-74.06885899,40.72708]},"properties":{"property_city":"Jersey City","property_state":"NJ","street":"40 GLENWOOD AVE","zip":7306,"mortgages":[{"proj_num":3142159,"name":"MADELINE GDNS","units":42,"amount":348000,"first_payment_date":null,"holder_city":"Ct","holder_state":"No Data Available"}],"white_pop":null,"black_pop":null,"other_pop":null,"gisjoin":"G34001700029","median_income":null}},{"type":"Feature","geometry":{"type":"Point","coordinates":[-74.06643559,40.88815188]},"properties":{"property_city":"Maywood","property_state":"NJ","street":"ESSEX ST","zip":7607,"mortgages":[{"proj_num":3140049,"name":"MAYBROOK GDNS","units":140,"amount":968000,"first_payment_date":null,"holder_city":"Ct","holder_state":""}]}},{"type":"Feature","geometry":{"type":"Point","coordinates":[-74.06322996,40.887891]},"properties":{"property_city":"Hackensack","property_state":"NJ","street":"520 Essex St","zip":7601,"mortgages":[{"proj_num":3140090,"name":"HACKENSACK GDNS","units":70,"amount":446000,"first_payment_date":{"year":1949,"month":7,"day":1},"holder_name":"REPUBLIC NATIONAL BANK OF NEW","holder_city":"New York","holder_state":"NY"},{"proj_num":3140091,"name":"HACKENSACK GDNS","units":60,"amount":381500,"first_payment_date":{"year":1949,"month":7,"day":1},"holder_name":"EASTCHESTER SAVINGS BANK","holder_city":"Mount Vernon","holder_state":"NY"},{"proj_num":3142006,"name":"HACKENSACK GDNS","units":60,"amount":397500,"first_payment_date":{"year":1949,"month":11,"day":1},"holder_name":"MIDLANTIC NATIONAL BANK","holder_city":"East Brunswick","holder_state":"NJ"},{"proj_num":3142005,"name":"HACKENSACK GDNS","units":68,"amount":419000,"first_payment_date":{"year":1949,"month":11,"day":1},"holder_name":"MIDLANTIC NATIONAL BANK","holder_city":"East Brunswick","holder_state":"NJ"},{"proj_num":3142028,"name":"HACKENSACK GDNS","units":68,"amount":433500,"first_payment_date":{"year":1949,"month":11,"day":1},"holder_name":"MIDLANTIC NATIONAL BANK","holder_city":"East Brunswick","holder_state":"NJ"}]}},{"type":"Feature","geometry":{"type":"Point","coordinates":[-74.060677,40.88676598]},"properties":{"property_city":"Hackensack","property_state":"NJ","street":"30 Arcadia Road","zip":7601,"mortgages":[{"proj_num":3142100,"name":"HACKENSACK GDNS","units":65,"amount":468000,"first_payment_date":{"year":1950,"month":9,"day":1},"holder_city":"Mount Vernon","holder_state":"NY"}]}},{"type":"Feature","geometry":{"type":"Point","coordinates":[-74.06042403,40.7333]},"properties":{"property_city":"Jersey City","property_state":"NJ","street":"25 VAN REIPEN AVE","zip":7306,"mortgages":[{"proj_num":3142119,"name":"25 VAN REIPEN AVE","units":31,"amount":235500,"first_payment_date":null,"holder_city":"Va","holder_state":""}],"white_pop":null,"black_pop":null,"other_pop":null,"gisjoin":"G34001700019","median_income":null}},{"type":"Feature","geometry":{"type":"Point","coordinates":[-74.057973,40.88513202]},"properties":{"property_city":"Hackensack","property_state":"NJ","street":"47 Prospect Ave","zip":7601,"mortgages":[{"proj_num":3142047,"name":"PROSPECT GDNS","units":65,"amount":529000,"first_payment_date":{"year":1949,"month":9,"day":1},"holder_city":"East Hartford","holder_state":"CT"}]}},{"type":"Feature","geometry":{"type":"Point","coordinates":[-74.05730496,40.89901798]},"properties":{"property_city":"Hackensack","property_state":"NJ","street":"418 Esplanade","zip":7601,"mortgages":[{"proj_num":3142007,"name":"SUBURBAN TERRACE","units":81,"amount":665500,"first_payment_date":{"year":1950,"month":7,"day":1},"holder_city":"Brooklyn","holder_state":"NY"},{"proj_num":3142008,"name":"SUBURBAN TERRACE","units":47,"amount":389000,"first_payment_date":{"year":1950,"month":9,"day":1},"holder_city":"Brooklyn","holder_state":"NY"},{"proj_num":3142059,"name":"SUBURBAN TERRACE","units":70,"amount":569000,"first_payment_date":{"year":1950,"month":3,"day":1},"holder_city":"Brooklyn","holder_state":"NY"}]}},{"type":"Feature","geometry":{"type":"Point","coordinates":[-74.057269,40.88341498]},"properties":{"property_city":"Hackensack","property_state":"NJ","street":"20 Prospect Ave","zip":7601,"mortgages":[{"proj_num":3142242,"name":"RIDGE VIEW COURT","units":75,"amount":448500,"first_payment_date":{"year":1951,"month":7,"day":1},"holder_city":"White Plains","holder_state":"NY"}]}},{"type":"Feature","geometry":{"type":"Point","coordinates":[-74.05390501,40.74467898]},"properties":{"property_city":"Jersey City","property_state":"NJ","street":"63 SHERMAN PL","zip":7307,"mortgages":[{"proj_num":3142120,"name":"ARISTON APTS","units":26,"amount":236000,"first_payment_date":null,"holder_city":"Ct","holder_state":""}],"white_pop":null,"black_pop":null,"other_pop":null,"gisjoin":"G34001700006","median_income":null}},{"type":"Feature","geometry":{"type":"Point","coordinates":[-74.04812614,40.71795948]},"properties":{"property_city":"Jersey City","property_state":"NJ","street":"1715 YORK ST","zip":7302,"mortgages":[{"proj_num":3142241,"name":"YORK VILLAGE APTS","units":27,"amount":183000,"first_payment_date":null,"holder_city":"Ny","holder_state":""}],"white_pop":null,"black_pop":null,"other_pop":null,"gisjoin":"G34001700036","median_income":null}},{"type":"Feature","geometry":{"type":"Point","coordinates":[-74.04147498,40.90118101]},"properties":{"property_city":"Hackensack","property_state":"NJ","street":"Johnson Ave and Main Street","zip":7601,"mortgages":[{"proj_num":3142025,"name":"GRAND MANOR","units":90,"amount":737867,"first_payment_date":{"year":1949,"month":9,"day":1},"holder_city":"White Plains","holder_state":"NY"}]}},{"type":"Feature","geometry":{"type":"Point","coordinates":[-74.04064098,40.62342863]},"properties":{"property_city":"New York-Brooklyn","property_state":"NY","street":"8801-Shore Road, Brooklyn, NY","zip":0,"mortgages":[{"proj_num":1242300,"name":"COLONNADE APTS","units":227,"amount":1985700,"first_payment_date":{"year":1952,"month":1,"day":1},"holder_name":"","holder_city":"","holder_state":""}],"white_pop":3235,"black_pop":2,"other_pop":7,"gisjoin":"G36004700050","median_income":5121}},{"type":"Feature","geometry":{"type":"Point","coordinates":[-74.03996297,40.61914799]},"properties":{"property_city":"New York-Brooklyn","property_state":"NY","street":"Shore Road and Oliver Street, Brooklyn, NY","zip":0,"mortgages":[{"proj_num":1242438,"name":"OLIVER GARDENS","units":234,"amount":2001500,"first_payment_date":{"year":1952,"month":2,"day":1},"holder_name":"","holder_city":"","holder_state":""}],"white_pop":1933,"black_pop":4,"other_pop":0,"gisjoin":"G360047000521","median_income":5096}},{"type":"Feature","geometry":{"type":"Point","coordinates":[-74.03505897,40.91621798]},"properties":{"property_city":"Hackensack","property_state":"NJ","street":"Kinderkamack Rd and Resevoir Ave","zip":7601,"mortgages":[{"proj_num":3142039,"name":"YOLANDA COURT","units":40,"amount":363000,"first_payment_date":{"year":1949,"month":7,"day":1},"holder_city":"Brooklyn","holder_state":"NY"}]}},{"type":"Feature","geometry":{"type":"Point","coordinates":[-74.03499099,40.75795001]},"properties":{"property_city":"Union City","property_state":"NJ","street":"1100 PALISADES AVE","zip":7087,"mortgages":[{"proj_num":3142315,"name":"PALISADE-UNION APTS","units":82,"amount":693500,"first_payment_date":null,"holder_city":"Ny","holder_state":""}],"white_pop":null,"black_pop":null,"other_pop":null,"gisjoin":"G3400170C0078","median_income":null}},{"type":"Feature","geometry":{"type":"Point","coordinates":[-74.03100892,40.63505664]},"properties":{"property_city":"New York-Brooklyn","property_state":"NY","street":"138 71st St, Brooklyn, NY","zip":0,"mortgages":[{"proj_num":1242088,"name":"HARBOR GARDENS","units":168,"amount":1461400,"first_payment_date":{"year":1951,"month":1,"day":1},"holder_name":"CHASE MANHATTAN BANK","holder_city":"New York","holder_state":"NY"}],"white_pop":4201,"black_pop":9,"other_pop":3,"gisjoin":"G36004700036","median_income":4521}},{"type":"Feature","geometry":{"type":"Point","coordinates":[-74.02640373,41.92783583]},"properties":{"property_city":"Kingston","property_state":"NY","street":"17 SHARON LA","zip":12401,"mortgages":[{"proj_num":1242447,"name":"PARKVIEW TERRACE","units":48,"amount":418700,"first_payment_date":{"year":1953,"month":4,"day":1},"holder_name":"","holder_city":"","holder_state":""}]}},{"type":"Feature","geometry":{"type":"Point","coordinates":[-74.02386598,40.78044787]},"properties":{"property_city":"Union City","property_state":"NJ","street":"4501-4505 COTTAGE PL","zip":7083,"mortgages":[{"proj_num":3142303,"name":"FULTON TOWERS","units":49,"amount":308500,"first_payment_date":null,"holder_city":"Ny","holder_state":"No Data Available"}],"white_pop":null,"black_pop":null,"other_pop":null,"gisjoin":"G3400170C0062","median_income":null}},{"type":"Feature","geometry":{"type":"Point","coordinates":[-74.01959302,40.85301001]},"properties":{"property_city":"Ridgefield Park","property_state":"NJ","street":"297 TEANECK RD","zip":7660,"mortgages":[{"proj_num":3140097,"name":"275 TEANECK RD CO","units":32,"amount":246000,"first_payment_date":null,"holder_city":"Ny","holder_state":"No Data Available"}]}},{"type":"Feature","geometry":{"type":"Point","coordinates":[-74.01660961,40.60738416]},"properties":{"property_city":"New York-Brooklyn","property_state":"NY","street":"2051-56-36-38-44 CROPSEY","zip":11214,"mortgages":[{"proj_num":1240060,"name":"SHORE HAVEN APTS 1","units":420,"amount":3268600,"first_payment_date":null,"holder_city":"Md","holder_state":"No Data Available"}],"white_pop":3842,"black_pop":2,"other_pop":0,"gisjoin":"G36004700170","median_income":3802}},{"type":"Feature","geometry":{"type":"Point","coordinates":[-74.0165213,40.60389951]},"properties":{"property_city":"New York-Brooklyn","property_state":"NY","street":"1517 Independence Ave, Brooklyn, NY","zip":0,"mortgages":[{"proj_num":1242213,"name":"INDEPENDENCE GARDENS","units":198,"amount":1659900,"first_payment_date":{"year":1951,"month":10,"day":1},"holder_name":"CHASE MANHATTAN BANK","holder_city":"New York","holder_state":"NY"}],"white_pop":961,"black_pop":2,"other_pop":0,"gisjoin":"G36004700168","median_income":0}},{"type":"Feature","geometry":{"type":"Point","coordinates":[-74.01395199,40.88609099]},"properties":{"property_city":"Teaneck Twp.","property_state":"NJ","street":"210 CEDAR LANE","zip":7666,"mortgages":[{"proj_num":3140054,"name":"210 CEDAR LANE","units":35,"amount":288500,"first_payment_date":null,"holder_city":"Ny","holder_state":"No Data Available"}]}},{"type":"Feature","geometry":{"type":"Point","coordinates":[-74.00956943,40.60156657]},"properties":{"property_city":"New York-Brooklyn","property_state":"NY","street":"241-303 BAY 17 ST","zip":11214,"mortgages":[{"proj_num":1242067,"name":"OCEAN VIEW GARDENS","units":84,"amount":704300,"first_payment_date":null,"holder_city":"Ny","holder_state":""}],"white_pop":2387,"black_pop":40,"other_pop":0,"gisjoin":"G36004700176","median_income":3767}},{"type":"Feature","geometry":{"type":"Point","coordinates":[-74.00678698,40.60229702]},"properties":{"property_city":"New York-Brooklyn","property_state":"NY","street":"Cropsey Ave & Bay 19th St, Brooklyn, NY","zip":0,"mortgages":[{"proj_num":1242117,"name":"PARKWAY GARDENS","units":130,"amount":1078200,"first_payment_date":{"year":1950,"month":10,"day":1},"holder_name":"NEW ENGLAND MUTUAL LIFE INS CO","holder_city":"Boston","holder_state":"MA"}],"white_pop":1882,"black_pop":105,"other_pop":1,"gisjoin":"G36004700280","median_income":3717}},{"type":"Feature","geometry":{"type":"Point","coordinates":[-74.00393071,40.59755059]},"properties":{"property_city":"New York-Brooklyn","property_state":"NY","street":"1483-87&1535 SHORE RD EX","zip":11214,"mortgages":[{"proj_num":1240062,"name":"SHORE HAVEN APTS 3","units":462,"amount":3558000,"first_payment_date":null,"holder_city":"Md","holder_state":"No Data Available"}],"white_pop":5788,"black_pop":4,"other_pop":0,"gisjoin":"G36004700286","median_income":4670}},{"type":"Feature","geometry":{"type":"Point","coordinates":[-74.00309274,40.59798817]},"properties":{"property_city":"New York-Brooklyn","property_state":"NY","street":"8831-91 & 2049 20 LA","zip":11214,"mortgages":[{"proj_num":1240061,"name":"SHORE HAVEN APTS 2","units":462,"amount":3572000,"first_payment_date":null,"holder_city":"Md","holder_state":"No Data Available"}],"white_pop":5788,"black_pop":4,"other_pop":0,"gisjoin":"G36004700286","median_income":4670}},{"type":"Feature","geometry":{"type":"Point","coordinates":[-74.00064418,40.22912946]},"properties":{"property_city":"Asbury Park","property_state":"NJ","street":"DEAL LAKE DR","zip":7712,"mortgages":[{"proj_num":3142152,"name":"LAKEVIEW GDNS","units":35,"amount":285000,"first_payment_date":null,"holder_city":"Nj","holder_state":""}]}},{"type":"Feature","geometry":{"type":"Point","coordinates":[-74.00040701,40.79341199]},"properties":{"property_city":"North Bergen Twp.","property_state":"NJ","street":"7112 BLVD","zip":7047,"mortgages":[{"proj_num":3142102,"name":"HUDSON TOWERS","units":214,"amount":1779000,"first_payment_date":null,"holder_city":"Ma","holder_state":""}],"white_pop":null,"black_pop":null,"other_pop":null,"gisjoin":"G3400170C0041","median_income":null}},{"type":"Feature","geometry":{"type":"Point","coordinates":[-73.99910971,40.66377769]},"properties":{"property_city":"New York-Queens","property_state":"NY","street":"10-18 Beach 22nd St., Queens, NY","zip":0,"mortgages":[{"proj_num":1240189,"name":"BEATRICE GARDENS","units":72,"amount":628100,"first_payment_date":{"year":1949,"month":7,"day":1},"holder_name":"BOWERY SAVINGS BANK-FDIC","holder_city":"East Hartford","holder_state":"CT"}],"white_pop":2028,"black_pop":0,"other_pop":1,"gisjoin":"G36004700113","median_income":2868}},{"type":"Feature","geometry":{"type":"Point","coordinates":[-73.99896074,40.66567908]},"properties":{"property_city":"New York-Queens","property_state":"NY","street":"20-70 20th St, Queens, NY","zip":0,"mortgages":[{"proj_num":1240027,"name":"GREGORY APTS","units":393,"amount":3210000,"first_payment_date":{"year":1949,"month":2,"day":1},"holder_name":"BOWERY SAVINGS BANK-FDIC","holder_city":"East Hartford","holder_state":"CT"}],"white_pop":1421,"black_pop":1,"other_pop":1,"gisjoin":"G36004700115","median_income":0}},{"type":"Feature","geometry":{"type":"Point","coordinates":[-73.99817901,40.80696201]},"properties":{"property_city":"North Bergen Twp.","property_state":"NJ","street":"210 WOODCLIFF AVE","zip":7047,"mortgages":[{"proj_num":3142193,"name":"WOODCLIFF TOWERS","units":39,"amount":327000,"first_payment_date":null,"holder_city":"Fl","holder_state":""}],"white_pop":null,"black_pop":null,"other_pop":null,"gisjoin":"G3400170C0041","median_income":null}},{"type":"Feature","geometry":{"type":"Point","coordinates":[-73.99756155,40.59631319]},"properties":{"property_city":"New York-Brooklyn","property_state":"NY","street":"CROPSEY AVE","zip":11214,"mortgages":[{"proj_num":1240133,"name":"CROPSEY AVENUE","units":193,"amount":1554000,"first_payment_date":null,"holder_city":"Ny","holder_state":"No Data Available"}],"white_pop":1206,"black_pop":3,"other_pop":0,"gisjoin":"G36004700294","median_income":0}},{"type":"Feature","geometry":{"type":"Point","coordinates":[-73.995821,40.940371]},"properties":{"property_city":"Dumont","property_state":"NJ","street":"N/W COR LEX AVE-KNICKE","zip":7628,"mortgages":[{"proj_num":3140013,"name":"MONACO ARMS APT #2","units":18,"amount":145500,"first_payment_date":null,"holder_city":"Ct","holder_state":""}]}},{"type":"Feature","geometry":{"type":"Point","coordinates":[-73.9943624,40.68774909]},"properties":{"property_city":"New York-Brooklyn","property_state":"NY","street":"200-220 Congress Street","zip":0,"mortgages":[{"proj_num":1242021,"name":"CONGRESS GARDENS","units":114,"amount":975200,"first_payment_date":{"year":1950,"month":11,"day":1},"holder_name":"CHASE MANHATTAN BANK","holder_city":"New York","holder_state":"NY"}],"white_pop":4829,"black_pop":143,"other_pop":18,"gisjoin":"G36004700045","median_income":2770}},{"type":"Feature","geometry":{"type":"Point","coordinates":[-73.98409197,40.92922401]},"properties":{"property_city":"Ridgefield","property_state":"NJ","street":"22 CEDAR ST","zip":7657,"mortgages":[{"proj_num":3140070,"name":"22 CEDAR ST CORP","units":18,"amount":142000,"first_payment_date":null,"holder_city":"Ct","holder_state":"No Data Available"}]}},{"type":"Feature","geometry":{"type":"Point","coordinates":[-73.98155461,40.95068223]},"properties":{"property_city":"Dumont","property_state":"NJ","street":"S/W COR LARCH AVE-KICH","zip":7628,"mortgages":[{"proj_num":3140012,"name":"MONACO ARMS APT #1","units":27,"amount":200000,"first_payment_date":null,"holder_city":"Ct","holder_state":""}]}},{"type":"Feature","geometry":{"type":"Point","coordinates":[-73.98131999,40.84068299]},"properties":{"property_city":"Fort Lee","property_state":"NJ","street":"1241 Anderson Ave","zip":7024,"mortgages":[{"proj_num":3142253,"name":"PLATEAU GDNS","units":97,"amount":669000,"first_payment_date":{"year":1951,"month":12,"day":1},"holder_city":"New York","holder_state":"NY"}]}},{"type":"Feature","geometry":{"type":"Point","coordinates":[-73.98127833,40.6458615]},"properties":{"property_city":"New York-Brooklyn","property_state":"NY","street":"36 Dahill Rd, Brooklyn, NY 11218","zip":0,"mortgages":[{"proj_num":1242057,"name":"DAHILL GARDENS","units":84,"amount":730700,"first_payment_date":{"year":1950,"month":11,"day":1},"holder_name":"","holder_city":"","holder_state":""}],"white_pop":3947,"black_pop":3,"other_pop":2,"gisjoin":"G36004700498","median_income":3837}},{"type":"Feature","geometry":{"type":"Point","coordinates":[-73.98036638,40.728582]},"properties":{"property_city":"New York-Manhattan","property_state":"NY","street":"520 E 12 ST","zip":10009,"mortgages":[{"proj_num":1242016,"name":"520 E 12 STREET","units":38,"amount":190000,"first_payment_date":{"year":1950,"month":2,"day":1},"holder_name":"","holder_city":"","holder_state":""}],"white_pop":11431,"black_pop":43,"other_pop":58,"gisjoin":"G36006100034","median_income":2227}},{"type":"Feature","geometry":{"type":"Point","coordinates":[-73.97928043,40.29847523]},"properties":{"property_city":"Long Branch","property_state":"NJ","street":"200 OCEAN AVE","zip":7740,"mortgages":[{"proj_num":3140058,"name":"MARINE GDNS","units":24,"amount":176000,"first_payment_date":null,"holder_city":"Ct","holder_state":""}]}},{"type":"Feature","geometry":{"type":"Point","coordinates":[-73.977422,40.84629764]},"properties":{"property_city":"Fort Lee","property_state":"NJ","street":"1452 Center Ave","zip":7024,"mortgages":[{"proj_num":3142170,"name":"PALISADE GDNS","units":167,"amount":1191000,"first_payment_date":{"year":1951,"month":8,"day":1},"holder_city":"Brooklyn","holder_state":"NY"}]}},{"type":"Feature","geometry":{"type":"Point","coordinates":[-73.97326759,40.6468538]},"properties":{"property_city":"New York-Brooklyn","property_state":"NY","street":"215 East 7th Street, Brooklyn, NY","zip":0,"mortgages":[{"proj_num":1242297,"name":"TERRACE PROPERTIES","units":96,"amount":856400,"first_payment_date":{"year":1951,"month":9,"day":1},"holder_name":"LINCOLN SAVINGS BANK","holder_city":"Jericho","holder_state":"NY"}],"white_pop":4272,"black_pop":17,"other_pop":6,"gisjoin":"G36004700504","median_income":4477}},{"type":"Feature","geometry":{"type":"Point","coordinates":[-73.97243207,40.59842986]},"properties":{"property_city":"New York-Brooklyn","property_state":"NY","street":"16 Sloan Place","zip":0,"mortgages":[{"proj_num":1242028,"name":"ROANN APTS","units":120,"amount":1017500,"first_payment_date":{"year":1950,"month":7,"day":1},"holder_name":"COMPTROLLER STATE OF NY","holder_city":"Albany","holder_state":"NY"}],"white_pop":4113,"black_pop":2,"other_pop":2,"gisjoin":"G36004700400","median_income":3750}},{"type":"Feature","geometry":{"type":"Point","coordinates":[-73.97221584,40.91260163]},"properties":{"property_city":"Englewood","property_state":"NJ","street":"491 TENAFLY RD","zip":7631,"mortgages":[{"proj_num":3140052,"name":"IVY VILLAGE","units":24,"amount":162000,"first_payment_date":null,"holder_city":"Ct","holder_state":""}]}},{"type":"Feature","geometry":{"type":"Point","coordinates":[-73.97129833,40.62894879]},"properties":{"property_city":"New York-Brooklyn","property_state":"NY","street":"Ocean Parkway and Avenue H, Brooklyn, NY","zip":0,"mortgages":[{"proj_num":1242358,"name":"EDMARK APTS","units":60,"amount":520000,"first_payment_date":{"year":1951,"month":9,"day":1},"holder_name":"","holder_city":"","holder_state":""}],"white_pop":1842,"black_pop":7,"other_pop":7,"gisjoin":"G360047004620","median_income":3719}},{"type":"Feature","geometry":{"type":"Point","coordinates":[-73.97090933,40.58569506]},"properties":{"property_city":"New York-Brooklyn","property_state":"NY","street":"2611 W 2nd St, Brooklyn, NY 11223","zip":11223,"mortgages":[{"proj_num":1242054,"name":"BEACH HAVEN 4","units":240,"amount":2054000,"first_payment_date":{"year":1951,"month":10,"day":1},"holder_city":"New York","holder_state":"NY"},{"proj_num":1242055,"name":"BEACH HAVEN 5","units":240,"amount":2082000,"first_payment_date":{"year":1952,"month":1,"day":1},"holder_city":"New York","holder_state":"NY"},{"proj_num":1242056,"name":"BEACH HAVEN 6","units":360,"amount":3128800,"first_payment_date":{"year":1952,"month":2,"day":1},"holder_city":"New York","holder_state":"NY"},{"proj_num":1242052,"name":"BEACH HAVEN 2","units":240,"amount":2052400,"first_payment_date":{"year":1951,"month":8,"day":1},"holder_name":"COMPTROLLER STATE OF NY","holder_city":"Albany","holder_state":"NY"},{"proj_num":1242053,"name":"BEACH HAVEN 3","units":300,"amount":2565000,"first_payment_date":{"year":1951,"month":9,"day":1},"holder_name":"EAST NEW YORK SAVINGS BANK","holder_city":"New York","holder_state":"NY"},{"proj_num":1242051,"name":"BEACH HAVEN 1","units":480,"amount":4140700,"first_payment_date":{"year":1951,"month":6,"day":1},"holder_name":"COMPTROLLER STATE OF NY","holder_city":"Albany","holder_state":"NY"}],"white_pop":603,"black_pop":0,"other_pop":0,"gisjoin":"G36004700374","median_income":0}},{"type":"Feature","geometry":{"type":"Point","coordinates":[-73.96825595,40.62873672]},"properties":{"property_city":"New York-Brooklyn","property_state":"NY","street":"824 East 9th Street, Brooklyn, NY","zip":0,"mortgages":[{"proj_num":1242339,"name":"RODER GARDENS","units":84,"amount":748400,"first_payment_date":{"year":1951,"month":9,"day":1},"holder_name":"","holder_city":"","holder_state":""}],"white_pop":2804,"black_pop":16,"other_pop":3,"gisjoin":"G36004700456","median_income":4136}},{"type":"Feature","geometry":{"type":"Point","coordinates":[-73.96476548,40.65275905]},"properties":{"property_city":"New York-Brooklyn","property_state":"NY","street":"20 Woodruff Ave, Brooklyn, NY","zip":0,"mortgages":[{"proj_num":1242313,"name":"WOODRUFF HOUSE","units":107,"amount":940700,"first_payment_date":{"year":1951,"month":8,"day":1},"holder_name":"","holder_city":"","holder_state":""}],"white_pop":11276,"black_pop":93,"other_pop":8,"gisjoin":"G36004700508","median_income":4164}},{"type":"Feature","geometry":{"type":"Point","coordinates":[-73.96008502,40.86113299]},"properties":{"property_city":"Fort Lee","property_state":"NJ","street":"2329 Hudson Terr","zip":7024,"mortgages":[{"proj_num":3142262,"name":"HUDSON TERR APTS","units":223,"amount":1742500,"first_payment_date":{"year":1953,"month":5,"day":1},