{"type":"FeatureCollection","features":[{"type":"Feature","geometry":{"type":"Point","coordinates":[-85.27643377,35.04858746]},"properties":{"property_city":"Chattanooga","property_state":"TN","street":"1301 Citico Avenue","zip":37404,"mortgages":[{"proj_num":8142059,"name":"CITICO APTS","units":56,"amount":208500,"first_payment_date":{"year":1951,"month":8,"day":1},"holder_name":"","holder_city":"","holder_state":""}],"white_pop":1589,"black_pop":6499,"other_pop":0,"gisjoin":"G47006500004","median_income":1549}},{"type":"Feature","geometry":{"type":"Point","coordinates":[-85.26141002,35.032742]},"properties":{"property_city":"Chattanooga","property_state":"TN","street":"2616 GLENWOOD PKY","zip":37404,"mortgages":[{"proj_num":8142048,"name":"HIGHLAND FOREST APTS","units":60,"amount":4,"first_payment_date":null,"holder_city":"Ny","holder_state":""}],"white_pop":1888,"black_pop":880,"other_pop":1,"gisjoin":"G47006500012","median_income":3104}},{"type":"Feature","geometry":{"type":"Point","coordinates":[-85.24776403,35.02663302]},"properties":{"property_city":"Chattanooga","property_state":"TN","street":"30 Tunnel Boulevard","zip":37411,"mortgages":[{"proj_num":8142049,"name":"MONTVIEW APARTMENTS","units":60,"amount":390000,"first_payment_date":{"year":1952,"month":3,"day":1},"holder_name":"","holder_city":"","holder_state":""}],"white_pop":1720,"black_pop":110,"other_pop":0,"gisjoin":"G47006500029","median_income":4542}},{"type":"Feature","geometry":{"type":"Point","coordinates":[-85.18162701,34.28718322]},"properties":{"property_city":"Rome","property_state":"GA","street":"MARTHA BERRY DRIVE","zip":30161,"mortgages":[{"proj_num":6140036,"name":"GLENWOOD APTS","units":74,"amount":4,"first_payment_date":null,"holder_city":"Mn","holder_state":"No Data Available"}]}},{"type":"Feature","geometry":{"type":"Point","coordinates":[-84.6721516,34.06446993]},"properties":{"property_city":"Atlanta","property_state":"GA","street":"SMITH ST VINE AVE SW","zip":30313,"mortgages":[{"proj_num":6142120,"name":"SMITH ST APTS INC","units":18,"amount":4,"first_payment_date":null,"holder_city":"Ny","holder_state":""}]}},{"type":"Feature","geometry":{"type":"Point","coordinates":[-84.60179273,34.03142739]},"properties":{"property_city":"Atlanta","property_state":"GA","street":"WRENS ST SE","zip":30309,"mortgages":[{"proj_num":6140070,"name":"OAKLAND CT APTS","units":240,"amount":4,"first_payment_date":null,"holder_city":"Il","holder_state":""}]}},{"type":"Feature","geometry":{"type":"Point","coordinates":[-84.52051197,33.95089102]},"properties":{"property_city":"Marietta","property_state":"GA","street":"Roswell St NE & Cobb Pkwy N, Marietta, GA 30060","zip":0,"mortgages":[{"proj_num":6160002,"name":"PINE FOREST APTS","units":500,"amount":"","first_payment_date":{"year":1945,"month":4,"day":1},"holder_name":"NATIONAL LIFE INSURANCE CO","holder_city":"Montpelier","holder_state":"VT"}]}},{"type":"Feature","geometry":{"type":"Point","coordinates":[-83.98452558,35.94629121]},"properties":{"property_city":"Knoxville","property_state":"TN","street":"LONGVIEW ROAD","zip":37919,"mortgages":[{"proj_num":8140019,"name":"FOREST HILLS VILLAGE","units":26,"amount":4,"first_payment_date":null,"holder_city":"Md","holder_state":""},{"proj_num":8140020,"name":"FOREST HILLS VILLAGE","units":26,"amount":4,"first_payment_date":null,"holder_city":"Md","holder_state":""}]}},{"type":"Feature","geometry":{"type":"Point","coordinates":[-83.97965594,36.0101256]},"properties":{"property_city":"Knoxville","property_state":"TN","street":"120 DAVID DRIVE S.E.","zip":37920,"mortgages":[{"proj_num":8140017,"name":"TALIWA COURT","units":80,"amount":4,"first_payment_date":null,"holder_city":"Ny","holder_state":""}]}},{"type":"Feature","geometry":{"type":"Point","coordinates":[-83.97611499,35.74959501]},"properties":{"property_city":"Maryville","property_state":"TN","street":"HIGHLAND & CUNNINGHAM","zip":37803,"mortgages":[{"proj_num":8742009,"name":"FONDE APARTMENTS","units":12,"amount":4,"first_payment_date":null,"holder_city":"Tn","holder_state":""}]}},{"type":"Feature","geometry":{"type":"Point","coordinates":[-83.95137049,35.95744871]},"properties":{"property_city":"Knoxville","property_state":"TN","street":"SUTHERLAND AVE","zip":37921,"mortgages":[{"proj_num":8140005,"name":"FOREST HILLS VILLAGE","units":26,"amount":4,"first_payment_date":null,"holder_city":"Md","holder_state":""},{"proj_num":8140018,"name":"FOREST HILLS VILLAGE","units":26,"amount":4,"first_payment_date":null,"holder_city":"Md","holder_state":""},{"proj_num":8142002,"name":"FOREST HILLS VILLAGE","units":26,"amount":4,"first_payment_date":null,"holder_city":"Md","holder_state":""},{"proj_num":8142001,"name":"FOREST HILLS VILLAGE","units":26,"amount":4,"first_payment_date":null,"holder_city":"Md","holder_state":""},{"proj_num":8142003,"name":"FOREST HILLS VILLAGE","units":26,"amount":4,"first_payment_date":null,"holder_city":"Md","holder_state":""}]}},{"type":"Feature","geometry":{"type":"Point","coordinates":[-83.90349848,36.01598362]},"properties":{"property_city":"Knoxville","property_state":"TN","street":"FAIRMONT BOULEVARD","zip":37917,"mortgages":[{"proj_num":8742005,"name":"FAIRMONT HEIGHTS","units":36,"amount":4,"first_payment_date":null,"holder_city":"Ny","holder_state":""}]}},{"type":"Feature","geometry":{"type":"Point","coordinates":[-83.82950681,34.30580586]},"properties":{"property_city":"Gainesville","property_state":"GA","street":"NORTH AVE","zip":30501,"mortgages":[{"proj_num":6140048,"name":"PIEDMONT HMS","units":24,"amount":4,"first_payment_date":null,"holder_city":"Ma","holder_state":""}]}}]}