{"type":"FeatureCollection","features":[{"type":"Feature","geometry":{"type":"Point","coordinates":[-81.96567916,28.06043375]},"properties":{"property_city":"Lakeland","property_state":"FL","street":"804 WEST 7TH ST","zip":33801,"mortgages":[{"proj_num":6742024,"name":"LINCOLN COURT","units":120,"amount":624200,"first_payment_date":null,"holder_city":"Ny","holder_state":"No Data Available"}]}},{"type":"Feature","geometry":{"type":"Point","coordinates":[-81.38088185,28.56672261]},"properties":{"property_city":"Orlando","property_state":"FL","street":"135 N IVANHOE BL","zip":32804,"mortgages":[{"proj_num":6340041,"name":"GURTLERS LAKE IVANHOE AP","units":24,"amount":194400,"first_payment_date":null,"holder_city":"Md","holder_state":""}]}},{"type":"Feature","geometry":{"type":"Point","coordinates":[-81.37436101,28.56737]},"properties":{"property_city":"Orlando","property_state":"FL","street":"300 NEW HAMPSHIRE ST","zip":32804,"mortgages":[{"proj_num":6340039,"name":"GURTLER'S LAKE IVANHOE A","units":24,"amount":194400,"first_payment_date":null,"holder_city":"Md","holder_state":""}]}},{"type":"Feature","geometry":{"type":"Point","coordinates":[-80.05277301,26.73803099]},"properties":{"property_city":"Palm Beach","property_state":"FL","street":"27th and N. Dixie","zip":"","mortgages":[{"proj_num":6640010,"name":"BETHESDA COURT","units":17,"amount":86700,"first_payment_date":{"year":1948,"month":8,"day":1},"holder_name":"MUTUAL BENEFIT LIFE INS CO","holder_city":"Newark","holder_state":"NJ"}]}},{"type":"Feature","geometry":{"type":"Point","coordinates":[-80.05230002,26.73777199]},"properties":{"property_city":"West Palm Beach","property_state":"FL","street":"2722 Poinsettia Ave.","zip":"","mortgages":[{"proj_num":6640139,"name":"BAMBOO COURT APTS","units":16,"amount":91500,"first_payment_date":{"year":1949,"month":4,"day":1},"holder_name":"JEFFERSON PILOT LIFE INS CO","holder_city":"Greensboro","holder_state":"NC"}]}},{"type":"Feature","geometry":{"type":"Point","coordinates":[-80.05206279,26.70448575]},"properties":{"property_city":"West Palm Beach","property_state":"FL","street":"1010 S. Olive Ave","zip":"","mortgages":[{"proj_num":6642026,"name":"CLEVELAND-CARNEGI","units":16,"amount":116200,"first_payment_date":{"year":1949,"month":3,"day":1},"holder_name":"CONNECTICUT GEN LIFE INS CO","holder_city":"Hartford","holder_state":"CT"}]}},{"type":"Feature","geometry":{"type":"Point","coordinates":[-80.05204085,26.7282688]},"properties":{"property_city":"West Palm Beach","property_state":"FL","street":"306-312 Lakeside Court","zip":"","mortgages":[{"proj_num":6640135,"name":"LEV-LOU INC","units":12,"amount":62900,"first_payment_date":{"year":1949,"month":6,"day":1},"holder_name":"AMERICAN GEN LIFE AND ACCDT IN","holder_city":"Nashville","holder_state":"TN"}]}},{"type":"Feature","geometry":{"type":"Point","coordinates":[-80.05008167,26.72922373]},"properties":{"property_city":"West Palm Beach","property_state":"FL","street":"1809 W FLAGLER DR","zip":33407,"mortgages":[{"proj_num":6640062,"name":"GARDEN LANE APTS","units":89,"amount":657800,"first_payment_date":null,"holder_city":"Oh","holder_state":""}]}},{"type":"Feature","geometry":{"type":"Point","coordinates":[-80.04335896,26.70242601]},"properties":{"property_city":"Palm Beach","property_state":"FL","street":"381 SO LAKE DRIVE","zip":33480,"mortgages":[{"proj_num":6640165,"name":"NASSAU SQUAEE COOP","units":16,"amount":122400,"first_payment_date":null,"holder_city":"Md","holder_state":""}]}},{"type":"Feature","geometry":{"type":"Point","coordinates":[-80.03788901,26.71910901]},"properties":{"property_city":"West Palm Beach","property_state":"FL","street":"Sunset Ave. and Country Road","zip":"","mortgages":[{"proj_num":6642075,"name":"BILTMORE APTS","units":10,"amount":79500,"first_payment_date":{"year":1950,"month":4,"day":1},"holder_name":"PROVIDENT INST FOR SAVINGS","holder_city":"Boston","holder_state":"MA"},{"proj_num":6642076,"name":"BILTMORE APTS","units":10,"amount":79400,"first_payment_date":{"year":1950,"month":4,"day":1},"holder_name":"PROVIDENT INST FOR SAVINGS","holder_city":"Boston","holder_state":"MA"}]}}]}