{"type":"FeatureCollection","features":[{"type":"Feature","geometry":{"type":"Point","coordinates":[-149.9,61.217]},"properties":{"city":"Anchorage","state":"AK","proj_num":13042001,"name":"TURN AGAIN ARMS","units":68,"amount":741000}},{"type":"Feature","geometry":{"type":"Point","coordinates":[-131.643,55.342]},"properties":{"city":"Ketchikan","state":"AK","proj_num":13042010,"name":"FERRIS COURT APTS","units":108,"amount":1230500}},{"type":"Feature","geometry":{"type":"Point","coordinates":[-134.42,58.302]},"properties":{"city":"Juneau City Boro","state":"AK","proj_num":13042008,"name":"4TH FRANKLIN APTS","units":132,"amount":1520200}},{"type":"Feature","geometry":{"type":"Point","coordinates":[-147.739,64.837]},"properties":{"city":"Fairbanks","state":"AK","proj_num":13042019,"name":"QUEENS COURT APTS","units":73,"amount":919191}},{"type":"Feature","geometry":{"type":"Point","coordinates":[-86.209,34.268]},"properties":{"city":"Albertville","state":"AL","proj_num":6242040,"name":"COLVIN APTS INC","units":8,"amount":53400}},{"type":"Feature","geometry":{"type":"Point","coordinates":[-85.953,32.944]},"properties":{"city":"Alexander City","state":"AL","proj_num":6242001,"name":"JEFFERSON COURT","units":24,"amount":183400}},{"type":"Feature","geometry":{"type":"Point","coordinates":[-86.962,34.813]},"properties":{"city":"Athens","state":"AL","proj_num":6242131,"name":"ATHENS APTS","units":12,"amount":69000}},{"type":"Feature","geometry":{"type":"Point","coordinates":[-85.482,32.609]},"properties":{"city":"Auburn","state":"AL","proj_num":6242050,"name":"VILLAGE APTS","units":8,"amount":56929}},{"type":"Feature","geometry":{"type":"Point","coordinates":[-86.808,33.523]},"properties":{"city":"Birmingham","state":"AL","proj_num":6242018,"name":"SHELBURNE APTS","units":64,"amount":343800}},{"type":"Feature","geometry":{"type":"Point","coordinates":[-86.166,34.198]},"properties":{"city":"Boaz","state":"AL","proj_num":6242112,"name":"COLLEGE APTS","units":8,"amount":40000}},{"type":"Feature","geometry":{"type":"Point","coordinates":[-88.075,30.772]},"properties":{"city":"Chickasaw","state":"AL","proj_num":6240008,"name":"GARDEN LANE APTS","units":101,"amount":687000}},{"type":"Feature","geometry":{"type":"Point","coordinates":[-86.354,33.278]},"properties":{"city":"Childersburg","state":"AL","proj_num":6242150,"name":"CHILDERSBURG GRDN","units":24,"amount":120000}},{"type":"Feature","geometry":{"type":"Point","coordinates":[-85.391,31.224]},"properties":{"city":"Dothan","state":"AL","proj_num":6240023,"name":"COUNTRY CLUB APTS","units":12,"amount":97200}},{"type":"Feature","geometry":{"type":"Point","coordinates":[-86.98,34.606]},"properties":{"city":"Decatur","state":"AL","proj_num":6242122,"name":"SHERIDAN APTS","units":50,"amount":264600}},{"type":"Feature","geometry":{"type":"Point","coordinates":[-85.846,31.328]},"properties":{"city":"Enterprise","state":"AL","proj_num":6242005,"name":"MAY APTS","units":8,"amount":60000}},{"type":"Feature","geometry":{"type":"Point","coordinates":[-86.021,34.012]},"properties":{"city":"Gadsden","state":"AL","proj_num":6240046,"name":"HILLSIDE TERRACE","units":96,"amount":692000}},{"type":"Feature","geometry":{"type":"Point","coordinates":[-85.723,34.441]},"properties":{"city":"Fort Payne","state":"AL","proj_num":6242142,"name":"ALVIN APTS","units":16,"amount":80000}},{"type":"Feature","geometry":{"type":"Point","coordinates":[-87.673,34.801]},"properties":{"city":"Florence","state":"AL","proj_num":6242016,"name":"MARTIN HOMES","units":33,"amount":200000}},{"type":"Feature","geometry":{"type":"Point","coordinates":[-86.789,33.472]},"properties":{"city":"Homewood","state":"AL","proj_num":6240068,"name":"CAHABA APTS","units":15,"amount":91000}},{"type":"Feature","geometry":{"type":"Point","coordinates":[-86.585,34.73]},"properties":{"city":"Huntsville","state":"AL","proj_num":6242012,"name":"LONGWOOD COURT","units":44,"amount":342500}},{"type":"Feature","geometry":{"type":"Point","coordinates":[-86.632,31.829]},"properties":{"city":"Greenville","state":"AL","proj_num":6240069,"name":"CNTRY CLB MANOR","units":14,"amount":98300}},{"type":"Feature","geometry":{"type":"Point","coordinates":[-86.547,33.546]},"properties":{"city":"Leeds","state":"AL","proj_num":6240054,"name":"THE ANNE APTS","units":14,"amount":74000}},{"type":"Feature","geometry":{"type":"Point","coordinates":[-87.279,33.831]},"properties":{"city":"Jasper","state":"AL","proj_num":6240066,"name":"MARION GRDNS","units":16,"amount":110000}},{"type":"Feature","geometry":{"type":"Point","coordinates":[-88.045,30.689]},"properties":{"city":"Mobile","state":"AL","proj_num":6042001,"name":"MERRIMAC HGTS","units":258,"amount":1455500}},{"type":"Feature","geometry":{"type":"Point","coordinates":[-87.896,31.521]},"properties":{"city":"Jackson","state":"AL","proj_num":6242046,"name":"MCKEE APTS","units":12,"amount":90000}},{"type":"Feature","geometry":{"type":"Point","coordinates":[-86.3,32.377]},"properties":{"city":"Montgomery","state":"AL","proj_num":6240005,"name":"WOODLEY APTS","units":17,"amount":111300}},{"type":"Feature","geometry":{"type":"Point","coordinates":[-86.477,33.946]},"properties":{"city":"Oneonta","state":"AL","proj_num":6242133,"name":"ONEONTA APTS","units":8,"amount":44900}},{"type":"Feature","geometry":{"type":"Point","coordinates":[-86.74,33.49]},"properties":{"city":"Mountain Brook","state":"AL","proj_num":6240019,"name":"ROSEMONT GDN","units":38,"amount":258000}},{"type":"Feature","geometry":{"type":"Point","coordinates":[-86.263,33.169]},"properties":{"city":"Sylacauga","state":"AL","proj_num":6242060,"name":"EUGENIA APTS","units":60,"amount":450000}},{"type":"Feature","geometry":{"type":"Point","coordinates":[-87.032,32.431]},"properties":{"city":"Selma","state":"AL","proj_num":6242146,"name":"SUNIMERFIELD HGHT","units":16,"amount":85700}},{"type":"Feature","geometry":{"type":"Point","coordinates":[-86.773,33.584]},"properties":{"city":"Tarrant City","state":"AL","proj_num":6242015,"name":"SPARTON APTS","units":8,"amount":43200}},{"type":"Feature","geometry":{"type":"Point","coordinates":[-86.106,33.435]},"properties":{"city":"Talladega","state":"AL","proj_num":6242154,"name":"FLORENCE COURT","units":42,"amount":237200}},{"type":"Feature","geometry":{"type":"Point","coordinates":[-85.972,31.81]},"properties":{"city":"Troy","state":"AL","proj_num":6240059,"name":"HILLCREST APTS","units":8,"amount":59800}},{"type":"Feature","geometry":{"type":"Point","coordinates":[-87.566,33.211]},"properties":{"city":"Tuscaloosa","state":"AL","proj_num":6240011,"name":"ABRAMS APTS","units":20,"amount":146000}},{"type":"Feature","geometry":{"type":"Point","coordinates":[-85.69,32.424]},"properties":{"city":"Tuskegee","state":"AL","proj_num":6240074,"name":"OAKLAND APTS","units":8,"amount":51300}},{"type":"Feature","geometry":{"type":"Point","coordinates":[-93.054,34.121]},"properties":{"city":"Arkadelphia","state":"AR","proj_num":8240010,"name":"EVANS APTS","units":8,"amount":53000}},{"type":"Feature","geometry":{"type":"Point","coordinates":[-92.437,35.092]},"properties":{"city":"Conway","state":"AR","proj_num":8240036,"name":"PARK VIEW APTS","units":16,"amount":101000}},{"type":"Feature","geometry":{"type":"Point","coordinates":[-94.161,36.062]},"properties":{"city":"Fayetteville","state":"AR","proj_num":8240011,"name":"PARKVIEW APTS","units":20,"amount":127000}},{"type":"Feature","geometry":{"type":"Point","coordinates":[-90.785,35.009]},"properties":{"city":"Forrest City","state":"AR","proj_num":8242015,"name":"MCAULEY APTS","units":16,"amount":110000}},{"type":"Feature","geometry":{"type":"Point","coordinates":[-94.424,35.387]},"properties":{"city":"Fort Smith","state":"AR","proj_num":8240004,"name":"WINDSOR ARMS","units":13,"amount":90000}},{"type":"Feature","geometry":{"type":"Point","coordinates":[-93.151,33.919]},"properties":{"city":"Gurdon","state":"AR","proj_num":8240024,"name":"GURDON APTS","units":8,"amount":46000}},{"type":"Feature","geometry":{"type":"Point","coordinates":[-93.592,33.667]},"properties":{"city":"Hope","state":"AR","proj_num":8240022,"name":"CASE + BEATY HSTN","units":8,"amount":50000}},{"type":"Feature","geometry":{"type":"Point","coordinates":[-93.056,34.503]},"properties":{"city":"Hot Springs","state":"AR","proj_num":8240014,"name":"CLEVELAND APTS","units":58,"amount":435000}},{"type":"Feature","geometry":{"type":"Point","coordinates":[-90.711,35.838]},"properties":{"city":"Jonesboro","state":"AR","proj_num":8242017,"name":"JONESBORO APTS","units":12,"amount":76000}},{"type":"Feature","geometry":{"type":"Point","coordinates":[-92.275,34.749]},"properties":{"city":"Little Rock","state":"AR","proj_num":8240002,"name":"RIVER CLIFF","units":164,"amount":1200000}},{"type":"Feature","geometry":{"type":"Point","coordinates":[-92.812,34.362]},"properties":{"city":"Malvern","state":"AR","proj_num":8242005,"name":"MALVERN APTS","units":16,"amount":101000}},{"type":"Feature","geometry":{"type":"Point","coordinates":[-93.233,33.273]},"properties":{"city":"Magnolia","state":"AR","proj_num":8240003,"name":"JEFFERSON APTS","units":8,"amount":52000}},{"type":"Feature","geometry":{"type":"Point","coordinates":[-93.134,35.278]},"properties":{"city":"Russellville","state":"AR","proj_num":8240030,"name":"RUSSELVILLE APTS","units":8,"amount":50000}},{"type":"Feature","geometry":{"type":"Point","coordinates":[-94.039,33.43]},"properties":{"city":"Texarkana","state":"AR","proj_num":8240009,"name":"BEECHDALE MANOR","units":36,"amount":300000}},{"type":"Feature","geometry":{"type":"Point","coordinates":[-92.002,34.222]},"properties":{"city":"Pine Bluff","state":"AR","proj_num":8240016,"name":"SMITHWICK APT","units":12,"amount":80000}},{"type":"Feature","geometry":{"type":"Point","coordinates":[-92.268,34.756]},"properties":{"city":"North Little Rock","state":"AR","proj_num":8242013,"name":"MARIE APTS","units":8,"amount":50000}},{"type":"Feature","geometry":{"type":"Point","coordinates":[-90.185,35.147]},"properties":{"city":"West Memphis","state":"AR","proj_num":8240005,"name":"WALLEN APTS","units":16,"amount":110000}},{"type":"Feature","geometry":{"type":"Point","coordinates":[-94.139,36.185]},"properties":{"city":"Springdale","state":"AR","proj_num":8242003,"name":"DOGWOOD APTS","units":16,"amount":96000}},{"type":"Feature","geometry":{"type":"Point","coordinates":[-112.073,33.448]},"properties":{"city":"Phoenix","state":"AZ","proj_num":12340012,"name":"WALKERS APTS","units":8,"amount":40200}},{"type":"Feature","geometry":{"type":"Point","coordinates":[-122.274,37.756]},"properties":{"city":"Alameda City","state":"CA","proj_num":12140002,"name":"WALNUT APTS","units":9,"amount":43500}},{"type":"Feature","geometry":{"type":"Point","coordinates":[-110.971,32.222]},"properties":{"city":"Tucson","state":"AZ","proj_num":13940006,"name":"COUNTRY CLUB APTS","units":16,"amount":100600}},{"type":"Feature","geometry":{"type":"Point","coordinates":[-118.127,34.095]},"properties":{"city":"Alhambra","state":"CA","proj_num":12240040,"name":"CHEFTON APTS","units":10,"amount":49823}},{"type":"Feature","geometry":{"type":"Point","coordinates":[-118.046,34.127]},"properties":{"city":"Arcadia","state":"CA","proj_num":12240273,"name":"BELCO APTS","units":8,"amount":57600}},{"type":"Feature","geometry":{"type":"Point","coordinates":[-118.243,34.052]},"properties":{"city":"Bal Of Los Angeles","state":"CA","proj_num":12240297,"name":"ENVOY PARK","units":13,"amount":100500}},{"type":"Feature","geometry":{"type":"Point","coordinates":[-121.883,36.601]},"properties":{"city":"Bal Of Monterey","state":"CA","proj_num":12140027,"name":"MONTA VISTA VILGE","units":24,"amount":146500}},{"type":"Feature","geometry":{"type":"Point","coordinates":[-117.164,32.716]},"properties":{"city":"Bal Of San Diego","state":"CA","proj_num":12940010,"name":"SURF APTS","units":9,"amount":46000}},{"type":"Feature","geometry":{"type":"Point","coordinates":[-118.19,33.978]},"properties":{"city":"Bell","state":"CA","proj_num":12242338,"name":"VICKING BELL APTS","units":44,"amount":248128}},{"type":"Feature","geometry":{"type":"Point","coordinates":[-122.27,37.869]},"properties":{"city":"Berkeley","state":"CA","proj_num":12140045,"name":"BUSHNELL PLACE","units":36,"amount":200000}},{"type":"Feature","geometry":{"type":"Point","coordinates":[-118.307,34.182]},"properties":{"city":"Burbank","state":"CA","proj_num":12240095,"name":"PONTICOPAULAS INC","units":8,"amount":52500}},{"type":"Feature","geometry":{"type":"Point","coordinates":[-118.405,34.08]},"properties":{"city":"Beverly Hills","state":"CA","proj_num":12240238,"name":"JUNIUS H SMART AP","units":12,"amount":96300}},{"type":"Feature","geometry":{"type":"Point","coordinates":[-118.221,33.898]},"properties":{"city":"Compton","state":"CA","proj_num":12240048,"name":"W E SANT APTS","units":15,"amount":88900}},{"type":"Feature","geometry":{"type":"Point","coordinates":[-118.394,34.022]},"properties":{"city":"Culver City","state":"CA","proj_num":12240141,"name":"STILSON ARMS","units":20,"amount":130845}},{"type":"Feature","geometry":{"type":"Point","coordinates":[-121.951,37.924]},"properties":{"city":"Contra Costa Count","state":"CA","proj_num":12140013,"name":"SUNSET VILLAGE 3","units":8,"amount":56858}},{"type":"Feature","geometry":{"type":"Point","coordinates":[-121.744,38.547]},"properties":{"city":"Davis","state":"CA","proj_num":12142039,"name":"DAVIS TOWN HOUSE","units":52,"amount":331100}},{"type":"Feature","geometry":{"type":"Point","coordinates":[-118.246,34.148]},"properties":{"city":"Glendale","state":"CA","proj_num":12240142,"name":"MELROSE MANOR","units":32,"amount":197719}},{"type":"Feature","geometry":{"type":"Point","coordinates":[-118.327,34.098]},"properties":{"city":"Hollywood","state":"CA","proj_num":12240170,"name":"LERMAN APTS","units":8,"amount":52800}},{"type":"Feature","geometry":{"type":"Point","coordinates":[-118.353,33.962]},"properties":{"city":"Inglewood","state":"CA","proj_num":12240363,"name":"AIRPORT GARDENS","units":22,"amount":113900}},{"type":"Feature","geometry":{"type":"Point","coordinates":[-117.782,33.546]},"properties":{"city":"Laguna Beach","state":"CA","proj_num":12242182,"name":"CLARESO APTS","units":8,"amount":62000}},{"type":"Feature","geometry":{"type":"Point","coordinates":[-118.181,33.772]},"properties":{"city":"Long Beach","state":"CA","proj_num":12240005,"name":"IRWIN APTS","units":9,"amount":45220}},{"type":"Feature","geometry":{"type":"Point","coordinates":[-122.183,37.453]},"properties":{"city":"Menlo Park","state":"CA","proj_num":12140039,"name":"MENLO SQUARE","units":18,"amount":108690}},{"type":"Feature","geometry":{"type":"Point","coordinates":[-118.257,34.173]},"properties":{"city":"Los Angeles County","state":"CA","proj_num":12240008,"name":"HANELS-OPPENHEIM","units":8,"amount":51800}},{"type":"Feature","geometry":{"type":"Point","coordinates":[-118.116,34.019]},"properties":{"city":"Montebello","state":"CA","proj_num":12240038,"name":"PIONEER INV CO","units":8,"amount":49900}},{"type":"Feature","geometry":{"type":"Point","coordinates":[-118.228,34.209]},"properties":{"city":"Montrose","state":"CA","proj_num":12240234,"name":"MAR VISTA APTS","units":15,"amount":105800}},{"type":"Feature","geometry":{"type":"Point","coordinates":[-118.379,34.172]},"properties":{"city":"North Hollywood","state":"CA","proj_num":12240041,"name":"STANLEY CLAY CORP","units":8,"amount":47675}},{"type":"Feature","geometry":{"type":"Point","coordinates":[-122.081,37.39]},"properties":{"city":"Mountain View","state":"CA","proj_num":12142007,"name":"CASA MONTANA VIST","units":8,"amount":50400}},{"type":"Feature","geometry":{"type":"Point","coordinates":[-122.272,37.805]},"properties":{"city":"Oakland","state":"CA","proj_num":12140017,"name":"GRAND HOMES","units":16,"amount":94600}},{"type":"Feature","geometry":{"type":"Point","coordinates":[-117.652,34.063]},"properties":{"city":"Ontario","state":"CA","proj_num":12240232,"name":"COLONY HOUSE","units":14,"amount":79681}},{"type":"Feature","geometry":{"type":"Point","coordinates":[-119.176,34.198]},"properties":{"city":"Oxnard","state":"CA","proj_num":12242350,"name":"PAUL REID INC","units":17,"amount":91300}},{"type":"Feature","geometry":{"type":"Point","coordinates":[-122.16,37.445]},"properties":{"city":"Palo Alto","state":"CA","proj_num":12142022,"name":"LEX APTS","units":8,"amount":64800}},{"type":"Feature","geometry":{"type":"Point","coordinates":[-118.141,34.15]},"properties":{"city":"Pasadena","state":"CA","proj_num":12240092,"name":"RAY DIKE AND CO","units":14,"amount":85229}},{"type":"Feature","geometry":{"type":"Point","coordinates":[-118.387,33.845]},"properties":{"city":"Redondo Beach","state":"CA","proj_num":12242329,"name":"CATALINA APTS","units":9,"amount":60000}},{"type":"Feature","geometry":{"type":"Point","coordinates":[-122.343,37.938]},"properties":{"city":"Richmond","state":"CA","proj_num":12140023,"name":"RICHMOND APTS","units":8,"amount":49300}},{"type":"Feature","geometry":{"type":"Point","coordinates":[-121.656,36.677]},"properties":{"city":"Salinas","state":"CA","proj_num":12140003,"name":"POJARO PARKWAY","units":33,"amount":175000}},{"type":"Feature","geometry":{"type":"Point","coordinates":[-117.377,33.981]},"properties":{"city":"Riverside","state":"CA","proj_num":13842001,"name":"FRANKLIN APTS","units":16,"amount":96400}},{"type":"Feature","geometry":{"type":"Point","coordinates":[-117.294,34.108]},"properties":{"city":"San Bernadino","state":"CA","proj_num":13842010,"name":"THE VIRGINIAN","units":60,"amount":396300}},{"type":"Feature","geometry":{"type":"Point","coordinates":[-121.495,38.577]},"properties":{"city":"Sacramento","state":"CA","proj_num":12140028,"name":"ARDELL MANOR","units":15,"amount":76400}},{"type":"Feature","geometry":{"type":"Point","coordinates":[-122.265,37.504]},"properties":{"city":"San Carlos","state":"CA","proj_num":12140026,"name":"BELOS APTS","units":10,"amount":61700}},{"type":"Feature","geometry":{"type":"Point","coordinates":[-122.42,37.78]},"properties":{"city":"San Francisco","state":"CA","proj_num":12140007,"name":"1556-1564 LOMBARD","units":8,"amount":56000}},{"type":"Feature","geometry":{"type":"Point","coordinates":[-118.107,34.099]},"properties":{"city":"San Gabriel","state":"CA","proj_num":12242347,"name":"CAL BRIEL APTS","units":16,"amount":94100}},{"type":"Feature","geometry":{"type":"Point","coordinates":[-122.314,37.547]},"properties":{"city":"San Mateo","state":"CA","proj_num":12140050,"name":"THE WOODLAND APTS","units":16,"amount":110700}},{"type":"Feature","geometry":{"type":"Point","coordinates":[-121.888,37.335]},"properties":{"city":"San Jose","state":"CA","proj_num":12140038,"name":"BURNETT APTS","units":8,"amount":45000}},{"type":"Feature","geometry":{"type":"Point","coordinates":[-122.532,37.975]},"properties":{"city":"San Rafael","state":"CA","proj_num":12140062,"name":"SAN RAFAEL GARDEN APTS","units":16,"amount":109725}},{"type":"Feature","geometry":{"type":"Point","coordinates":[-119.698,34.421]},"properties":{"city":"Santa Barbara","state":"CA","proj_num":12242359,"name":"THE OAKS","units":10,"amount":79400}},{"type":"Feature","geometry":{"type":"Point","coordinates":[-118.492,34.011]},"properties":{"city":"Santa Monica","state":"CA","proj_num":12240034,"name":"WEINBERG M-B","units":8,"amount":49900}},{"type":"Feature","geometry":{"type":"Point","coordinates":[-117.87,33.75]},"properties":{"city":"Santa Ana","state":"CA","proj_num":12242282,"name":"TOWNE HOUSE","units":17,"amount":112200}},{"type":"Feature","geometry":{"type":"Point","coordinates":[-118.15,34.116]},"properties":{"city":"South Pasadena","state":"CA","proj_num":12240186,"name":"HUNTINGTON TERR","units":13,"amount":74600}},{"type":"Feature","geometry":{"type":"Point","coordinates":[-118.206,33.954]},"properties":{"city":"South Gate","state":"CA","proj_num":12242213,"name":"BUTLER APTS","units":10,"amount":56200}},{"type":"Feature","geometry":{"type":"Point","coordinates":[-118.34,33.836]},"properties":{"city":"Torrance","state":"CA","proj_num":12242101,"name":"SEAHAVEN APTS","units":156,"amount":1269500}},{"type":"Feature","geometry":{"type":"Point","coordinates":[-118.447,34.185]},"properties":{"city":"Van Nuys","state":"CA","proj_num":12240086,"name":"BEEBE APTS","units":10,"amount":55590}},{"type":"Feature","geometry":{"type":"Point","coordinates":[-118.372,34.091]},"properties":{"city":"West Hollywood","state":"CA","proj_num":12242248,"name":"REXMORE APTS","units":21,"amount":143600}},{"type":"Feature","geometry":{"type":"Point","coordinates":[-93.29,35.624]},"properties":{"city":"Perry Twp","state":"CH","proj_num":4342076,"name":"BOYER APTS","units":20,"amount":174600}},{"type":"Feature","geometry":{"type":"Point","coordinates":[-104.819,39.713]},"properties":{"city":"Aurora","state":"CO","proj_num":10140002,"name":"DELMAR GARDENS","units":26,"amount":200000}},{"type":"Feature","geometry":{"type":"Point","coordinates":[-77.02,38.892]},"properties":{"city":"Washington","state":"CH","proj_num":4340065,"name":"NORTH APTS","units":12,"amount":96000}},{"type":"Feature","geometry":{"type":"Point","coordinates":[-104.82,38.835]},"properties":{"city":"Colorado Springs","state":"CO","proj_num":10142009,"name":"WINLEN APTS A","units":17,"amount":132100}},{"type":"Feature","geometry":{"type":"Point","coordinates":[-104.985,39.738]},"properties":{"city":"Denver","state":"CO","proj_num":10140007,"name":"LEO O ERVIN APTS","units":16,"amount":118100}},{"type":"Feature","geometry":{"type":"Point","coordinates":[-104.61,38.265]},"properties":{"city":"Pueblo","state":"CO","proj_num":10142013,"name":"COLONIAL MANOR","units":20,"amount":153059}},{"type":"Feature","geometry":{"type":"Point","coordinates":[-73.452,41.394]},"properties":{"city":"Danbury","state":"CT","proj_num":1742015,"name":"RIDGEWOOD APTS","units":40,"amount":322500}},{"type":"Feature","geometry":{"type":"Point","coordinates":[-72.859,41.295]},"properties":{"city":"East Haven Town","state":"CT","proj_num":1740001,"name":"GREEN GARDENS","units":57,"amount":451300}},{"type":"Feature","geometry":{"type":"Point","coordinates":[-72.922,41.396]},"properties":{"city":"Hamden Town","state":"CT","proj_num":1740004,"name":"QUAKER APTS","units":38,"amount":376200}},{"type":"Feature","geometry":{"type":"Point","coordinates":[-73.189,41.179]},"properties":{"city":"Bridgeport","state":"CT","proj_num":1760005,"name":"PARK LANE APTS","units":32,"amount":171000}},{"type":"Feature","geometry":{"type":"Point","coordinates":[-72.673,41.766]},"properties":{"city":"Hartford","state":"CT","proj_num":1742001,"name":"TERRACE GARDENS","units":36,"amount":324000}},{"type":"Feature","geometry":{"type":"Point","coordinates":[-73.057,41.491]},"properties":{"city":"Naugatuck","state":"CT","proj_num":1760013,"name":"CASSIDY CONST CO","units":38,"amount":200000}},{"type":"Feature","geometry":{"type":"Point","coordinates":[-72.524,41.775]},"properties":{"city":"Manchester Town","state":"CT","proj_num":1760009,"name":"MANCHESTER GRDNS","units":102,"amount":540000}},{"type":"Feature","geometry":{"type":"Point","coordinates":[-72.924,41.308]},"properties":{"city":"New Haven","state":"CT","proj_num":1740007,"name":"GREENWOOD APTS","units":24,"amount":165700}},{"type":"Feature","geometry":{"type":"Point","coordinates":[-73.413,41.118]},"properties":{"city":"Norwalk","state":"CT","proj_num":1740013,"name":"CLARMORE APTS","units":96,"amount":671000}},{"type":"Feature","geometry":{"type":"Point","coordinates":[-73.539,41.052]},"properties":{"city":"Stamford","state":"CT","proj_num":1740014,"name":"HILLTOP APTS","units":176,"amount":1337000}},{"type":"Feature","geometry":{"type":"Point","coordinates":[-72.804,41.459]},"properties":{"city":"Wallingford Town","state":"CT","proj_num":1742014,"name":"RIDGELAND","units":60,"amount":461000}},{"type":"Feature","geometry":{"type":"Point","coordinates":[-72.754,41.767]},"properties":{"city":"West Hartford Town","state":"CT","proj_num":1740003,"name":"LOOMIS MANOR","units":42,"amount":378000}},{"type":"Feature","geometry":{"type":"Point","coordinates":[-82.8,27.964]},"properties":{"city":"Clearwater","state":"FL","proj_num":6340046,"name":"YACHT BASIN APT","units":28,"amount":1458000}},{"type":"Feature","geometry":{"type":"Point","coordinates":[-81.548,30.082]},"properties":{"city":"Bal Of St. Johns","state":"FL","proj_num":6340019,"name":"PONTE VEDRA APTS","units":18,"amount":2715000}},{"type":"Feature","geometry":{"type":"Point","coordinates":[-80.269,25.71]},"properties":{"city":"Coral Gables","state":"FL","proj_num":6640003,"name":"B + L HOUSING COR","units":20,"amount":3392500}},{"type":"Feature","geometry":{"type":"Point","coordinates":[-81.021,29.207]},"properties":{"city":"Daytona Beach","state":"FL","proj_num":6340045,"name":"HALIFASC DEVELP","units":36,"amount":372000}},{"type":"Feature","geometry":{"type":"Point","coordinates":[-82.325,29.652]},"properties":{"city":"Gainesville","state":"FL","proj_num":6340008,"name":"DE SOTO COURT","units":16,"amount":0}},{"type":"Feature","geometry":{"type":"Point","coordinates":[-80.144,26.124]},"properties":{"city":"Fort Lauderdale","state":"FL","proj_num":6640132,"name":"MARCIA MANOR","units":12,"amount":0}},{"type":"Feature","geometry":{"type":"Point","coordinates":[-81.657,30.326]},"properties":{"city":"Jacksonville","state":"FL","proj_num":6340002,"name":"ZAMBETTI APTS","units":8,"amount":0}},{"type":"Feature","geometry":{"type":"Point","coordinates":[-81.392,30.288]},"properties":{"city":"Jacksonville Beach","state":"FL","proj_num":6340020,"name":"MCCORMICK APTS","units":28,"amount":0}},{"type":"Feature","geometry":{"type":"Point","coordinates":[-81.949,28.044]},"properties":{"city":"Lakeland","state":"FL","proj_num":6740001,"name":"FLA SOUTHERN COLG","units":127,"amount":0}},{"type":"Feature","geometry":{"type":"Point","coordinates":[-80.195,25.775]},"properties":{"city":"Miami","state":"FL","proj_num":6640014,"name":"HIGH PINES INC","units":56,"amount":0}},{"type":"Feature","geometry":{"type":"Point","coordinates":[-80.135,25.792]},"properties":{"city":"Miami Beach","state":"FL","proj_num":6640145,"name":"BISCAYNE APTS A","units":12,"amount":0}},{"type":"Feature","geometry":{"type":"Point","coordinates":[-82.138,29.189]},"properties":{"city":"Ocala","state":"FL","proj_num":6342033,"name":"OCALA APTS","units":20,"amount":0}},{"type":"Feature","geometry":{"type":"Point","coordinates":[-81.379,28.538]},"properties":{"city":"Orlando","state":"FL","proj_num":6340016,"name":"BAYONET HOUSING","units":12,"amount":0}},{"type":"Feature","geometry":{"type":"Point","coordinates":[-82.539,27.337]},"properties":{"city":"Sarasota","state":"FL","proj_num":6740023,"name":"FLORASOTA GDNS 1","units":25,"amount":0}},{"type":"Feature","geometry":{"type":"Point","coordinates":[-82.814,27.81]},"properties":{"city":"Redington Beach","state":"FL","proj_num":6740006,"name":"CARMALT APTS","units":17,"amount":0}},{"type":"Feature","geometry":{"type":"Point","coordinates":[-81.317,29.896]},"properties":{"city":"St. Augustine","state":"FL","proj_num":6342039,"name":"TAYLOR APTS","units":12,"amount":0}},{"type":"Feature","geometry":{"type":"Point","coordinates":[-80.298,25.709]},"properties":{"city":"South Miami","state":"FL","proj_num":6642023,"name":"CAROLINDA","units":12,"amount":0}},{"type":"Feature","geometry":{"type":"Point","coordinates":[-82.679,27.771]},"properties":{"city":"St. Petersburg","state":"FL","proj_num":6740018,"name":"TROPICAL APTS","units":17,"amount":0}},{"type":"Feature","geometry":{"type":"Point","coordinates":[-84.278,30.441]},"properties":{"city":"Tallahassee","state":"FL","proj_num":6340006,"name":"HILLCREST APTS","units":12,"amount":0}},{"type":"Feature","geometry":{"type":"Point","coordinates":[-82.459,27.947]},"properties":{"city":"Tampa","state":"FL","proj_num":6740019,"name":"GULFVIEW COURTS","units":8,"amount":0}},{"type":"Feature","geometry":{"type":"Point","coordinates":[-84.156,31.578]},"properties":{"city":"Albany","state":"GA","proj_num":6140046,"name":"4TH AVE APTS","units":16,"amount":129000}},{"type":"Feature","geometry":{"type":"Point","coordinates":[-83.377,33.957]},"properties":{"city":"Athens","state":"GA","proj_num":6142033,"name":"UNIVERSITY COURT","units":40,"amount":240000}},{"type":"Feature","geometry":{"type":"Point","coordinates":[-84.392,33.749]},"properties":{"city":"Atlanta","state":"GA","proj_num":6140038,"name":"CASCADE HEIGHTS","units":40,"amount":316000}},{"type":"Feature","geometry":{"type":"Point","coordinates":[-81.964,33.472]},"properties":{"city":"Augusta","state":"GA","proj_num":6140037,"name":"COUNTRY CLUB APT","units":80,"amount":727500}},{"type":"Feature","geometry":{"type":"Point","coordinates":[-85.078,33.58]},"properties":{"city":"Carrollton","state":"GA","proj_num":6142114,"name":"TOWER APTS INC","units":42,"amount":270000}},{"type":"Feature","geometry":{"type":"Point","coordinates":[-84.99,32.467]},"properties":{"city":"Columbus","state":"GA","proj_num":6140020,"name":"COLUMBIA HGTS","units":32,"amount":264000}},{"type":"Feature","geometry":{"type":"Point","coordinates":[-83.252,31.715]},"properties":{"city":"Fitzgerald","state":"GA","proj_num":6140055,"name":"VIRGINIA APTS","units":16,"amount":100000}},{"type":"Feature","geometry":{"type":"Point","coordinates":[-84.969,32.352]},"properties":{"city":"Fort Benning","state":"GA","proj_num":6142041,"name":"BATTLE PK HMS","units":200,"amount":1421000}},{"type":"Feature","geometry":{"type":"Point","coordinates":[-84.264,33.244]},"properties":{"city":"Griffin","state":"GA","proj_num":6142084,"name":"SIBLEY APTS INC","units":36,"amount":213800}},{"type":"Feature","geometry":{"type":"Point","coordinates":[-83.864,33.596]},"properties":{"city":"Covington","state":"GA","proj_num":6142003,"name":"BROOKWOOD APTS","units":12,"amount":105000}},{"type":"Feature","geometry":{"type":"Point","coordinates":[-83.632,32.836]},"properties":{"city":"Macon","state":"GA","proj_num":6140008,"name":"BROOKWOOD APTS","units":100,"amount":792000}},{"type":"Feature","geometry":{"type":"Point","coordinates":[-83.789,31.18]},"properties":{"city":"Moultrie","state":"GA","proj_num":6140024,"name":"CARALYN APTS","units":12,"amount":95000}},{"type":"Feature","geometry":{"type":"Point","coordinates":[-83.56,30.784]},"properties":{"city":"Quitman","state":"GA","proj_num":6142051,"name":"L)ALLEGRO APTS","units":24,"amount":150000}},{"type":"Feature","geometry":{"type":"Point","coordinates":[-81.09,32.081]},"properties":{"city":"Savannah","state":"GA","proj_num":6140013,"name":"ABERCORN TERRACE","units":148,"amount":910000}},{"type":"Feature","geometry":{"type":"Point","coordinates":[-83.978,30.836]},"properties":{"city":"Thomasville","state":"GA","proj_num":6140016,"name":"CAROLYN APTS","units":12,"amount":95000}},{"type":"Feature","geometry":{"type":"Point","coordinates":[-83.279,30.831]},"properties":{"city":"Valdosta","state":"GA","proj_num":6140028,"name":"CAROLYN APTS","units":20,"amount":155000}},{"type":"Feature","geometry":{"type":"Point","coordinates":[-155.089,19.725]},"properties":{"city":"Hilo","state":"HI","proj_num":14042001,"name":"ULULANI APTS","units":12,"amount":68000}},{"type":"Feature","geometry":{"type":"Point","coordinates":[-157.858,21.31]},"properties":{"city":"Honolulu","state":"HI","proj_num":14042003,"name":"PLUMERIA APTS","units":18,"amount":100000}},{"type":"Feature","geometry":{"type":"Point","coordinates":[-83.509,31.45]},"properties":{"city":"Tifton","state":"GA","proj_num":6140014,"name":"AMY APTS","units":32,"amount":225000}},{"type":"Feature","geometry":{"type":"Point","coordinates":[-82.016,33.09]},"properties":{"city":"Waynesboro","state":"GA","proj_num":6142015,"name":"MC BEAN HOMES INC","units":20,"amount":106000}},{"type":"Feature","geometry":{"type":"Point","coordinates":[-90.507,41.526]},"properties":{"city":"Bettendorf","state":"IA","proj_num":7440005,"name":"SLAVENS APTS","units":15,"amount":76500}},{"type":"Feature","geometry":{"type":"Point","coordinates":[-91.101,40.811]},"properties":{"city":"Burlington","state":"IA","proj_num":7442004,"name":"BELLE AIR KNOLL","units":24,"amount":199000}},{"type":"Feature","geometry":{"type":"Point","coordinates":[-90.577,41.524]},"properties":{"city":"Davenport","state":"IA","proj_num":7442026,"name":"MT IDA APTS","units":44,"amount":355200}},{"type":"Feature","geometry":{"type":"Point","coordinates":[-93.62,41.589]},"properties":{"city":"Des Moines","state":"IA","proj_num":7442013,"name":"WILTSIE APTS","units":24,"amount":194000}},{"type":"Feature","geometry":{"type":"Point","coordinates":[-90.667,42.506]},"properties":{"city":"Dubuque","state":"IA","proj_num":7442016,"name":"EAGLE POINT APTS","units":52,"amount":421200}},{"type":"Feature","geometry":{"type":"Point","coordinates":[-93.201,43.154]},"properties":{"city":"Mason City","state":"IA","proj_num":7442010,"name":"WILLOWBROOK ADDTN","units":76,"amount":615600}},{"type":"Feature","geometry":{"type":"Point","coordinates":[-94.169,42.501]},"properties":{"city":"Fort Dodge","state":"IA","proj_num":7442018,"name":"DODGER APTS","units":56,"amount":470300}},{"type":"Feature","geometry":{"type":"Point","coordinates":[-96.097,42.027]},"properties":{"city":"Onawa","state":"IA","proj_num":7442003,"name":"CONGER PARK APTS","units":38,"amount":307400}},{"type":"Feature","geometry":{"type":"Point","coordinates":[-96.406,42.496]},"properties":{"city":"Sioux City","state":"IA","proj_num":7442021,"name":"VALLEY PARK APTS","units":150,"amount":1228500}},{"type":"Feature","geometry":{"type":"Point","coordinates":[-95.201,42.641]},"properties":{"city":"Storm Lake","state":"IA","proj_num":7442022,"name":"PINE CREST COURT","units":22,"amount":169800}},{"type":"Feature","geometry":{"type":"Point","coordinates":[-92.344,42.493]},"properties":{"city":"Waterloo","state":"IA","proj_num":7442028,"name":"PARK VIEW APTS","units":28,"amount":215100}},{"type":"Feature","geometry":{"type":"Point","coordinates":[-91.56,41.656]},"properties":{"city":"University Heights","state":"IA","proj_num":7442025,"name":"GRAND VIEW COURT","units":92,"amount":763000}},{"type":"Feature","geometry":{"type":"Point","coordinates":[-112.345,43.189]},"properties":{"city":"Blackfoot","state":"ID","proj_num":12442002,"name":"WILSON APTS","units":24,"amount":200000}},{"type":"Feature","geometry":{"type":"Point","coordinates":[-116.202,43.616]},"properties":{"city":"Boise","state":"ID","proj_num":12440001,"name":"BOISE HILLS VLLGE","units":202,"amount":1627200}},{"type":"Feature","geometry":{"type":"Point","coordinates":[-112.444,42.867]},"properties":{"city":"Pocatello","state":"ID","proj_num":12442001,"name":"POCOTELLO HGTS","units":100,"amount":846500}},{"type":"Feature","geometry":{"type":"Point","coordinates":[-117,46.734]},"properties":{"city":"Moscow","state":"ID","proj_num":17140012,"name":"BLAINE MANOR APTS","units":104,"amount":831600}},{"type":"Feature","geometry":{"type":"Point","coordinates":[-116.688,43.663]},"properties":{"city":"Caldwell","state":"ID","proj_num":12442008,"name":"STADIUM APTS","units":17,"amount":130000}},{"type":"Feature","geometry":{"type":"Point","coordinates":[-87.646,41.895]},"properties":{"city":"Bal Of Cook","state":"IL","proj_num":7142100,"name":"HOLLY BROOK APTS","units":40,"amount":324000}},{"type":"Feature","geometry":{"type":"Point","coordinates":[-114.46,42.563]},"properties":{"city":"Twin Falls","state":"ID","proj_num":12442007,"name":"CANYON VILLA","units":29,"amount":230000}},{"type":"Feature","geometry":{"type":"Point","coordinates":[-89.984,38.513]},"properties":{"city":"Belleville","state":"IL","proj_num":7242040,"name":"BELLEAIR MANOR","units":10,"amount":81000}},{"type":"Feature","geometry":{"type":"Point","coordinates":[-88.244,40.116]},"properties":{"city":"Champaign","state":"IL","proj_num":7242035,"name":"NODE APTS INC","units":12,"amount":93300}},{"type":"Feature","geometry":{"type":"Point","coordinates":[-89.217,37.725]},"properties":{"city":"Carbondale","state":"IL","proj_num":7242029,"name":"RODGERS PK APTS","units":20,"amount":150000}},{"type":"Feature","geometry":{"type":"Point","coordinates":[-87.632,41.883]},"properties":{"city":"Chicago","state":"IL","proj_num":7140001,"name":"BUDLONG WOODS","units":21,"amount":189000}},{"type":"Feature","geometry":{"type":"Point","coordinates":[-89.485,40.917]},"properties":{"city":"Chillicothe","state":"IL","proj_num":7242048,"name":"SYCAMORE MANOR","units":8,"amount":64000}},{"type":"Feature","geometry":{"type":"Point","coordinates":[-87.688,42.052]},"properties":{"city":"Evanston","state":"IL","proj_num":7140003,"name":"OAKTON TERRACE","units":36,"amount":266500}},{"type":"Feature","geometry":{"type":"Point","coordinates":[-88.956,39.841]},"properties":{"city":"Decatur","state":"IL","proj_num":7260001,"name":"LINCOLN APTS","units":25,"amount":109000}},{"type":"Feature","geometry":{"type":"Point","coordinates":[-87.758,42.132]},"properties":{"city":"Glencoe","state":"IL","proj_num":7140044,"name":"PARK LAWN APTS","units":11,"amount":99000}},{"type":"Feature","geometry":{"type":"Point","coordinates":[-90.155,38.623]},"properties":{"city":"East St. Louis","state":"IL","proj_num":7242046,"name":"ELMISAH APTS","units":14,"amount":103987}},{"type":"Feature","geometry":{"type":"Point","coordinates":[-87.802,42.185]},"properties":{"city":"Highland Park","state":"IL","proj_num":7142133,"name":"HIGHLAND SUNSET","units":36,"amount":263100}},{"type":"Feature","geometry":{"type":"Point","coordinates":[-88.083,41.525]},"properties":{"city":"Joliet","state":"IL","proj_num":7142121,"name":"ONEIDA APTS","units":10,"amount":81000}},{"type":"Feature","geometry":{"type":"Point","coordinates":[-88.372,38.38]},"properties":{"city":"Fairfield","state":"IL","proj_num":7240004,"name":"CHEF FIELD APTS","units":48,"amount":415700}},{"type":"Feature","geometry":{"type":"Point","coordinates":[-89.59,40.695]},"properties":{"city":"Peoria","state":"IL","proj_num":7242027,"name":"NATIONAL DWELLING","units":20,"amount":162000}},{"type":"Feature","geometry":{"type":"Point","coordinates":[-89.088,42.267]},"properties":{"city":"Rockford","state":"IL","proj_num":7142217,"name":"HIGH CREST PARK","units":190,"amount":1460717}},{"type":"Feature","geometry":{"type":"Point","coordinates":[-87.816,41.894]},"properties":{"city":"River Forest","state":"IL","proj_num":7142013,"name":"BONNIE BRAE APTS","units":8,"amount":68400}},{"type":"Feature","geometry":{"type":"Point","coordinates":[-88.207,40.112]},"properties":{"city":"Urbana","state":"IL","proj_num":7242047,"name":"FAIRLAWN VILLAGE","units":110,"amount":824200}},{"type":"Feature","geometry":{"type":"Point","coordinates":[-87.834,42.36]},"properties":{"city":"Waukegan","state":"IL","proj_num":7140039,"name":"JZ","units":12,"amount":83000}},{"type":"Feature","geometry":{"type":"Point","coordinates":[-90.094,38.86]},"properties":{"city":"Wood River","state":"IL","proj_num":7240001,"name":"FERGUSON APTS INC","units":17,"amount":89700}},{"type":"Feature","geometry":{"type":"Point","coordinates":[-85.678,40.108]},"properties":{"city":"Anderson","state":"IN","proj_num":7342013,"name":"ANDERSON TOWERS","units":68,"amount":605800}},{"type":"Feature","geometry":{"type":"Point","coordinates":[-86.535,39.167]},"properties":{"city":"Bloomington","state":"IN","proj_num":7340032,"name":"EDWARDS APTS","units":11,"amount":77000}},{"type":"Feature","geometry":{"type":"Point","coordinates":[-87.57,37.976]},"properties":{"city":"Evansville","state":"IN","proj_num":7340015,"name":"COLLEGE APTS","units":13,"amount":105000}},{"type":"Feature","geometry":{"type":"Point","coordinates":[-89.644,39.799]},"properties":{"city":"Springfield","state":"IL","proj_num":7242053,"name":"PATTON APTS INC","units":10,"amount":80000}},{"type":"Feature","geometry":{"type":"Point","coordinates":[-85.137,41.077]},"properties":{"city":"Fort Wayne","state":"IN","proj_num":7340010,"name":"FLORIDA APTS","units":45,"amount":372600}},{"type":"Feature","geometry":{"type":"Point","coordinates":[-87.35,41.602]},"properties":{"city":"Gary","state":"IN","proj_num":7340008,"name":"COMBS APTS","units":8,"amount":64800}},{"type":"Feature","geometry":{"type":"Point","coordinates":[-87.509,41.605]},"properties":{"city":"Hammond","state":"IN","proj_num":7340004,"name":"JAMES APTS","units":15,"amount":104900}},{"type":"Feature","geometry":{"type":"Point","coordinates":[-85.727,38.299]},"properties":{"city":"Jeffersonville","state":"IN","proj_num":7340016,"name":"HATHENNE APTS","units":16,"amount":100000}},{"type":"Feature","geometry":{"type":"Point","coordinates":[-87.509,41.561]},"properties":{"city":"Munster","state":"IN","proj_num":7342022,"name":"HOLLYWOOD APTS","units":25,"amount":202500}},{"type":"Feature","geometry":{"type":"Point","coordinates":[-87.499,41.679]},"properties":{"city":"Whiting","state":"IN","proj_num":7342041,"name":"HOUSING UNLIMITED","units":16,"amount":129600}},{"type":"Feature","geometry":{"type":"Point","coordinates":[-96.2,38.412]},"properties":{"city":"Emporia","state":"KS","proj_num":10240011,"name":"EMPORIA SUPPLY","units":18,"amount":150100}},{"type":"Feature","geometry":{"type":"Point","coordinates":[-94.735,37.024]},"properties":{"city":"Baxter Springs","state":"KS","proj_num":10240008,"name":"BLOSSER APTS","units":12,"amount":70500}},{"type":"Feature","geometry":{"type":"Point","coordinates":[-86.156,39.768]},"properties":{"city":"Indianapolis","state":"IN","proj_num":7342081,"name":"CANTERBURY COURTS","units":78,"amount":631800}},{"type":"Feature","geometry":{"type":"Point","coordinates":[-96.837,39.028]},"properties":{"city":"Junction City","state":"KS","proj_num":10240005,"name":"MADISON APTS INC","units":12,"amount":72000}},{"type":"Feature","geometry":{"type":"Point","coordinates":[-94.627,39.113]},"properties":{"city":"Kansas City","state":"KS","proj_num":10242050,"name":"WYANDOTTE APTS","units":48,"amount":341400}},{"type":"Feature","geometry":{"type":"Point","coordinates":[-86.216,41.065]},"properties":{"city":"Rochester","state":"IN","proj_num":7342005,"name":"OAKWOOD APTS","units":15,"amount":112000}},{"type":"Feature","geometry":{"type":"Point","coordinates":[-94.818,38.884]},"properties":{"city":"Olathe","state":"KS","proj_num":10260003,"name":"HIGHLAND PARK","units":50,"amount":186800}},{"type":"Feature","geometry":{"type":"Point","coordinates":[-95.238,38.973]},"properties":{"city":"Lawrence","state":"KS","proj_num":10242002,"name":"WARWICK APTS","units":14,"amount":100000}},{"type":"Feature","geometry":{"type":"Point","coordinates":[-96.567,39.187]},"properties":{"city":"Manhattan","state":"KS","proj_num":10240009,"name":"COLLEGE COURT","units":24,"amount":185000}},{"type":"Feature","geometry":{"type":"Point","coordinates":[-95.67,39.051]},"properties":{"city":"Topeka","state":"KS","proj_num":10240016,"name":"MT VERNON COURT","units":112,"amount":783500}},{"type":"Feature","geometry":{"type":"Point","coordinates":[-97.336,37.686]},"properties":{"city":"Wichita","state":"KS","proj_num":10240002,"name":"EUMORE GARDENS","units":18,"amount":139500}},{"type":"Feature","geometry":{"type":"Point","coordinates":[-84.568,39.033]},"properties":{"city":"Lakeside Park","state":"KY","proj_num":8340017,"name":"LAKESIDE PARK","units":24,"amount":168000}},{"type":"Feature","geometry":{"type":"Point","coordinates":[-84.497,38.046]},"properties":{"city":"Lexington-Fayette","state":"KY","proj_num":8340002,"name":"CHEVY CHASE DEV 2","units":9,"amount":78000}},{"type":"Feature","geometry":{"type":"Point","coordinates":[-85.752,38.256]},"properties":{"city":"Louisville","state":"KY","proj_num":8340009,"name":"GLENMARY AVE REAL","units":8,"amount":66000}},{"type":"Feature","geometry":{"type":"Point","coordinates":[-87.111,37.773]},"properties":{"city":"Owensboro","state":"KY","proj_num":8342004,"name":"CLARANETTE APTS","units":20,"amount":154000}},{"type":"Feature","geometry":{"type":"Point","coordinates":[-88.633,37.076]},"properties":{"city":"Paducah","state":"KY","proj_num":8342034,"name":"HILLCREST APTS","units":16,"amount":121900}},{"type":"Feature","geometry":{"type":"Point","coordinates":[-91.187,30.443]},"properties":{"city":"Baton Rouge","state":"LA","proj_num":6440002,"name":"FASTER APTS","units":36,"amount":244000}},{"type":"Feature","geometry":{"type":"Point","coordinates":[-90.155,30.004]},"properties":{"city":"Metairie","state":"LA","proj_num":6442042,"name":"MANCHESTER APTS","units":12,"amount":86000}},{"type":"Feature","geometry":{"type":"Point","coordinates":[-90.458,30.504]},"properties":{"city":"Hammond","state":"LA","proj_num":6440017,"name":"PINE OAKS APTS","units":20,"amount":133000}},{"type":"Feature","geometry":{"type":"Point","coordinates":[-90.075,29.952]},"properties":{"city":"New Orleans","state":"LA","proj_num":6440022,"name":"MIRABEAU MANOR","units":16,"amount":129600}},{"type":"Feature","geometry":{"type":"Point","coordinates":[-93.748,32.514]},"properties":{"city":"Shreveport","state":"LA","proj_num":5942009,"name":"CADDO ARMS APT","units":390,"amount":1277917}},{"type":"Feature","geometry":{"type":"Point","coordinates":[-93.467,33.006]},"properties":{"city":"Springhill","state":"LA","proj_num":5942007,"name":"PARK VIEW APTS","units":16,"amount":129200}},{"type":"Feature","geometry":{"type":"Point","coordinates":[-71.157,42.416]},"properties":{"city":"Arlington","state":"MA","proj_num":2342010,"name":"MOORE APTS","units":116,"amount":939600}},{"type":"Feature","geometry":{"type":"Point","coordinates":[-71.02,42.083]},"properties":{"city":"Brockton","state":"MA","proj_num":2340012,"name":"PARKWAY APTS","units":25,"amount":200000}},{"type":"Feature","geometry":{"type":"Point","coordinates":[-71.121,42.334]},"properties":{"city":"Brookline","state":"MA","proj_num":2340002,"name":"LARKWOOD APTS","units":62,"amount":510300}},{"type":"Feature","geometry":{"type":"Point","coordinates":[-71.212,42.338]},"properties":{"city":"Newton","state":"MA","proj_num":2342017,"name":"RIVERBANK CT APTS","units":28,"amount":226800}},{"type":"Feature","geometry":{"type":"Point","coordinates":[-71.002,42.251]},"properties":{"city":"Quincy","state":"MA","proj_num":2340013,"name":"LINDEN GARDENS","units":19,"amount":150900}},{"type":"Feature","geometry":{"type":"Point","coordinates":[-72.586,42.102]},"properties":{"city":"Springfield","state":"MA","proj_num":2342009,"name":"TERR GDNS","units":66,"amount":547400}},{"type":"Feature","geometry":{"type":"Point","coordinates":[-71.239,42.376]},"properties":{"city":"Waltham","state":"MA","proj_num":2340014,"name":"GARDENWEST","units":289,"amount":2399400}},{"type":"Feature","geometry":{"type":"Point","coordinates":[-71.159,42.279]},"properties":{"city":"West Roxbury","state":"MA","proj_num":2342001,"name":"FRANKLIN APTS","units":71,"amount":583200}},{"type":"Feature","geometry":{"type":"Point","coordinates":[-71.187,42.367]},"properties":{"city":"Watertown","state":"MA","proj_num":2340022,"name":"MARION GARDENS","units":11,"amount":87300}},{"type":"Feature","geometry":{"type":"Point","coordinates":[-71.802,42.262]},"properties":{"city":"Worcester","state":"MA","proj_num":2360002,"name":"SALISBURY GARDENS","units":108,"amount":722200}},{"type":"Feature","geometry":{"type":"Point","coordinates":[-76.612,39.29]},"properties":{"city":"Baltimore","state":"MD","proj_num":5242058,"name":"MCLEAN MANOR","units":52,"amount":316100}},{"type":"Feature","geometry":{"type":"Point","coordinates":[-77.719,39.64]},"properties":{"city":"Hagerstown","state":"MD","proj_num":5242020,"name":"POTOMAC APTS","units":40,"amount":290000}},{"type":"Feature","geometry":{"type":"Point","coordinates":[-72.623,42.103]},"properties":{"city":"West Springfield","state":"MA","proj_num":2560002,"name":"W SPRGFLD GRDNS","units":264,"amount":1315000}},{"type":"Feature","geometry":{"type":"Point","coordinates":[-76.848,39.1]},"properties":{"city":"Laurel","state":"MD","proj_num":42064,"name":"PARK TERRACE","units":16,"amount":108000}},{"type":"Feature","geometry":{"type":"Point","coordinates":[-75.599,38.366]},"properties":{"city":"Salisbury","state":"MD","proj_num":5242012,"name":"NORTH PARK GARDEN","units":52,"amount":414000}},{"type":"Feature","geometry":{"type":"Point","coordinates":[-76.847,38.829]},"properties":{"city":"Prince George'S Co","state":"MD","proj_num":42157,"name":"HILLCREST GDNS","units":54,"amount":361800}},{"type":"Feature","geometry":{"type":"Point","coordinates":[-77.153,39.084]},"properties":{"city":"Rockville","state":"MD","proj_num":42225,"name":"ROCKVILLE TERRACE","units":165,"amount":845700}},{"type":"Feature","geometry":{"type":"Point","coordinates":[-76.907,38.896]},"properties":{"city":"Seat Pleasant","state":"MD","proj_num":60112,"name":"EASTERN AVE CORP","units":44,"amount":198400}},{"type":"Feature","geometry":{"type":"Point","coordinates":[-69.781,44.308]},"properties":{"city":"Augusta","state":"ME","proj_num":2260016,"name":"AUGUSTA HOMES","units":36,"amount":190000}},{"type":"Feature","geometry":{"type":"Point","coordinates":[-77.027,38.998]},"properties":{"city":"Silver Spring","state":"MD","proj_num":42154,"name":"NORTH PORTAL PROP","units":76,"amount":0}},{"type":"Feature","geometry":{"type":"Point","coordinates":[-69.978,43.897]},"properties":{"city":"Brunswick Town","state":"ME","proj_num":2260007,"name":"MAYFLOWER APTS","units":12,"amount":54700}},{"type":"Feature","geometry":{"type":"Point","coordinates":[-70.257,43.659]},"properties":{"city":"Portland","state":"ME","proj_num":2240002,"name":"ST JOHN APT","units":28,"amount":120000}},{"type":"Feature","geometry":{"type":"Point","coordinates":[-68.015,46.681]},"properties":{"city":"Presque Isle","state":"ME","proj_num":2260010,"name":"MOUNTAIN VIEW","units":36,"amount":160000}},{"type":"Feature","geometry":{"type":"Point","coordinates":[-83.748,42.281]},"properties":{"city":"Ann Arbor","state":"MI","proj_num":4442014,"name":"FAIRWAY LODGE INC","units":28,"amount":224000}},{"type":"Feature","geometry":{"type":"Point","coordinates":[-83.839,42.253]},"properties":{"city":"Bal Of Washtenaw","state":"MI","proj_num":4460002,"name":"NOBLE CORP","units":422,"amount":2348158}},{"type":"Feature","geometry":{"type":"Point","coordinates":[-85.182,42.319]},"properties":{"city":"Battle Creek","state":"MI","proj_num":4742027,"name":"BAHANNA APTS","units":12,"amount":97200}},{"type":"Feature","geometry":{"type":"Point","coordinates":[-83.215,42.544]},"properties":{"city":"Birmingham","state":"MI","proj_num":4440082,"name":"BIRMINGHAM TERRAC","units":14,"amount":126600}},{"type":"Feature","geometry":{"type":"Point","coordinates":[-83.176,42.322]},"properties":{"city":"Dearborn","state":"MI","proj_num":4440063,"name":"WOODWORTH MANOR","units":20,"amount":170500}},{"type":"Feature","geometry":{"type":"Point","coordinates":[-83.048,42.333]},"properties":{"city":"Detroit","state":"MI","proj_num":4440003,"name":"OUTER DR TERR","units":14,"amount":100000}},{"type":"Feature","geometry":{"type":"Point","coordinates":[-83.685,43.01]},"properties":{"city":"Flint","state":"MI","proj_num":4442099,"name":"ORCHARD LAKE MNR","units":45,"amount":337900}},{"type":"Feature","geometry":{"type":"Point","coordinates":[-85.67,42.965]},"properties":{"city":"Grand Rapids","state":"MI","proj_num":4742004,"name":"HILLMOUNT APTS","units":101,"amount":818000}},{"type":"Feature","geometry":{"type":"Point","coordinates":[-82.911,42.386]},"properties":{"city":"Grosse Pointe","state":"MI","proj_num":4440060,"name":"GROSSE PT GDN 3","units":16,"amount":122400}},{"type":"Feature","geometry":{"type":"Point","coordinates":[-85.585,42.29]},"properties":{"city":"Kalamazoo","state":"MI","proj_num":4742001,"name":"WESTWEDGE HILL","units":72,"amount":603000}},{"type":"Feature","geometry":{"type":"Point","coordinates":[-84.409,42.247]},"properties":{"city":"Jackson","state":"MI","proj_num":4440009,"name":"GRAMM VILLAGE E","units":18,"amount":163300}},{"type":"Feature","geometry":{"type":"Point","coordinates":[-84.554,42.734]},"properties":{"city":"Lansing","state":"MI","proj_num":4440050,"name":"GRAND RIVER TERR","units":24,"amount":200000}},{"type":"Feature","geometry":{"type":"Point","coordinates":[-86.247,43.234]},"properties":{"city":"Muskegon","state":"MI","proj_num":4742002,"name":"GLENSIDE GDNS","units":74,"amount":617600}},{"type":"Feature","geometry":{"type":"Point","coordinates":[-86.253,41.83]},"properties":{"city":"Niles","state":"MI","proj_num":4742015,"name":"BONINE APTS","units":40,"amount":318900}},{"type":"Feature","geometry":{"type":"Point","coordinates":[-83.144,42.49]},"properties":{"city":"Royal Oak","state":"MI","proj_num":4442124,"name":"NORTH COOLIDGE 2","units":60,"amount":486000}},{"type":"Feature","geometry":{"type":"Point","coordinates":[-83.398,41.916]},"properties":{"city":"Monroe","state":"MI","proj_num":4440085,"name":"COLONIAL GDN A","units":20,"amount":191400}},{"type":"Feature","geometry":{"type":"Point","coordinates":[-83.154,42.563]},"properties":{"city":"Troy","state":"MI","proj_num":4442005,"name":"BEECH TERRACE","units":18,"amount":154000}},{"type":"Feature","geometry":{"type":"Point","coordinates":[-93.387,45.198]},"properties":{"city":"Anoka","state":"MN","proj_num":9242134,"name":"MADISON APTS INC","units":22,"amount":170200}},{"type":"Feature","geometry":{"type":"Point","coordinates":[-92.975,43.67]},"properties":{"city":"Austin","state":"MN","proj_num":9242018,"name":"STERLING COURTS","units":10,"amount":68500}},{"type":"Feature","geometry":{"type":"Point","coordinates":[-93.268,44.295]},"properties":{"city":"Faribault","state":"MN","proj_num":9242147,"name":"FARIBAULT APTS","units":11,"amount":85900}},{"type":"Feature","geometry":{"type":"Point","coordinates":[-93.566,44.904]},"properties":{"city":"Excelsior","state":"MN","proj_num":9242096,"name":"EXCELSIOR APTS","units":44,"amount":370400}},{"type":"Feature","geometry":{"type":"Point","coordinates":[-93.349,44.91]},"properties":{"city":"Edina","state":"MN","proj_num":9242027,"name":"EDINA APTS","units":11,"amount":89000}},{"type":"Feature","geometry":{"type":"Point","coordinates":[-92.937,47.428]},"properties":{"city":"Hibbing","state":"MN","proj_num":9240017,"name":"GRAY CORP","units":12,"amount":75000}},{"type":"Feature","geometry":{"type":"Point","coordinates":[-94.005,44.166]},"properties":{"city":"Mankato","state":"MN","proj_num":9242141,"name":"ARMERN INC","units":28,"amount":224700}},{"type":"Feature","geometry":{"type":"Point","coordinates":[-93.414,44.924]},"properties":{"city":"Hopkins","state":"MN","proj_num":9242051,"name":"ELMS PARK HSG","units":145,"amount":1182600}},{"type":"Feature","geometry":{"type":"Point","coordinates":[-93.264,44.977]},"properties":{"city":"Minneapolis","state":"MN","proj_num":9240026,"name":"PRESTON + HANSON","units":12,"amount":74600}},{"type":"Feature","geometry":{"type":"Point","coordinates":[-93.225,44.085]},"properties":{"city":"Owatonna","state":"MN","proj_num":9242131,"name":"ACADEMY APTS","units":22,"amount":171000}},{"type":"Feature","geometry":{"type":"Point","coordinates":[-94.027,44.169]},"properties":{"city":"North Mankato","state":"MN","proj_num":9240009,"name":"NORMAN APTS","units":14,"amount":87000}},{"type":"Feature","geometry":{"type":"Point","coordinates":[-94.157,45.559]},"properties":{"city":"St. Cloud","state":"MN","proj_num":9240018,"name":"EMBASSY APTS","units":10,"amount":72500}},{"type":"Feature","geometry":{"type":"Point","coordinates":[-93.368,44.944]},"properties":{"city":"St. Louis Park","state":"MN","proj_num":9240024,"name":"BRUNSWICK APTS","units":11,"amount":73100}},{"type":"Feature","geometry":{"type":"Point","coordinates":[-93.094,44.944]},"properties":{"city":"St. Paul","state":"MN","proj_num":9240001,"name":"RAMBLER APTS","units":36,"amount":196300}},{"type":"Feature","geometry":{"type":"Point","coordinates":[-95.044,45.122]},"properties":{"city":"Willmar","state":"MN","proj_num":9242042,"name":"TEIGLAND APTS","units":11,"amount":80500}},{"type":"Feature","geometry":{"type":"Point","coordinates":[-93.085,44.898]},"properties":{"city":"West St. Paul","state":"MN","proj_num":9242074,"name":"ORME IVESTMENT","units":10,"amount":73700}},{"type":"Feature","geometry":{"type":"Point","coordinates":[-94.512,37.088]},"properties":{"city":"Joplin","state":"MO","proj_num":8440014,"name":"GRAHAM SALES CORP","units":10,"amount":55000}},{"type":"Feature","geometry":{"type":"Point","coordinates":[-94.579,39.1]},"properties":{"city":"Kansas City","state":"MO","proj_num":8440012,"name":"GLADSTONE APTS","units":16,"amount":90000}},{"type":"Feature","geometry":{"type":"Point","coordinates":[-94.577,39.142]},"properties":{"city":"North Kansas City","state":"MO","proj_num":8442038,"name":"NOR-TWO INC","units":306,"amount":2103700}},{"type":"Feature","geometry":{"type":"Point","coordinates":[-90.201,38.635]},"properties":{"city":"St. Louis","state":"MO","proj_num":8540031,"name":"OLEATHA CORP","units":12,"amount":95400}},{"type":"Feature","geometry":{"type":"Point","coordinates":[-93.292,37.216]},"properties":{"city":"Springfield","state":"MO","proj_num":8440013,"name":"VILLAGE DEV CO","units":42,"amount":302400}},{"type":"Feature","geometry":{"type":"Point","coordinates":[-90.337,38.664]},"properties":{"city":"University City","state":"MO","proj_num":8542046,"name":"MILBRO APTS","units":8,"amount":67600}},{"type":"Feature","geometry":{"type":"Point","coordinates":[-88.887,30.393]},"properties":{"city":"Biloxi","state":"MS","proj_num":6540010,"name":"SARAN APTS","units":14,"amount":107700}},{"type":"Feature","geometry":{"type":"Point","coordinates":[-93.735,38.771]},"properties":{"city":"Warrensburg","state":"MO","proj_num":8440019,"name":"PERSHING COURT APTS","units":22,"amount":177000}},{"type":"Feature","geometry":{"type":"Point","coordinates":[-90.575,34.203]},"properties":{"city":"Clarksdale","state":"MS","proj_num":6542029,"name":"NOSEF APTS INC","units":12,"amount":78000}},{"type":"Feature","geometry":{"type":"Point","coordinates":[-90.193,33.521]},"properties":{"city":"Greenwood","state":"MS","proj_num":6542023,"name":"LE FLORE APTS","units":16,"amount":104900}},{"type":"Feature","geometry":{"type":"Point","coordinates":[-91.053,33.399]},"properties":{"city":"Greenville","state":"MS","proj_num":6542043,"name":"GREENVILLE APTS","units":28,"amount":130000}},{"type":"Feature","geometry":{"type":"Point","coordinates":[-90.183,32.303]},"properties":{"city":"Jackson","state":"MS","proj_num":6540004,"name":"GINDD APTS","units":12,"amount":65400}},{"type":"Feature","geometry":{"type":"Point","coordinates":[-88.704,32.365]},"properties":{"city":"Meridian","state":"MS","proj_num":6540008,"name":"BROWN APTS","units":17,"amount":142500}},{"type":"Feature","geometry":{"type":"Point","coordinates":[-91.405,31.562]},"properties":{"city":"Natchez","state":"MS","proj_num":6542009,"name":"MORTON HOMES","units":20,"amount":139000}},{"type":"Feature","geometry":{"type":"Point","coordinates":[-82.734,35.234]},"properties":{"city":"Brevard","state":"NC","proj_num":5342058,"name":"SAPPHIRE MANOR","units":50,"amount":304000}},{"type":"Feature","geometry":{"type":"Point","coordinates":[-108.505,45.783]},"properties":{"city":"Billings","state":"MT","proj_num":9342005,"name":"WESTERN APTS INC","units":83,"amount":584400}},{"type":"Feature","geometry":{"type":"Point","coordinates":[-82.55,35.596]},"properties":{"city":"Asheville","state":"NC","proj_num":5342025,"name":"COLEMAN APTS","units":112,"amount":772000}},{"type":"Feature","geometry":{"type":"Point","coordinates":[-79.433,36.099]},"properties":{"city":"Burlington","state":"NC","proj_num":5340013,"name":"MAYFAIR CORP","units":72,"amount":245000}},{"type":"Feature","geometry":{"type":"Point","coordinates":[-79.055,35.91]},"properties":{"city":"Chapel Hill","state":"NC","proj_num":5342033,"name":"COUNTRY CLUB DEV","units":314,"amount":2130000}},{"type":"Feature","geometry":{"type":"Point","coordinates":[-78.899,35.997]},"properties":{"city":"Durham","state":"NC","proj_num":5340009,"name":"THE PINES","units":22,"amount":171200}},{"type":"Feature","geometry":{"type":"Point","coordinates":[-80.841,35.224]},"properties":{"city":"Charlotte","state":"NC","proj_num":5340011,"name":"COR-PHIL CO INC","units":19,"amount":0}},{"type":"Feature","geometry":{"type":"Point","coordinates":[-81.187,35.262]},"properties":{"city":"Gastonia","state":"NC","proj_num":5342036,"name":"EASTOVER APTS","units":100,"amount":608000}},{"type":"Feature","geometry":{"type":"Point","coordinates":[-77.999,35.387]},"properties":{"city":"Goldsboro","state":"NC","proj_num":5360005,"name":"GOLDSBORO HSG","units":32,"amount":135000}},{"type":"Feature","geometry":{"type":"Point","coordinates":[-78.884,35.054]},"properties":{"city":"Fayetteville","state":"NC","proj_num":5360004,"name":"WAYNE HOMES","units":66,"amount":230000}},{"type":"Feature","geometry":{"type":"Point","coordinates":[-79.708,34.89]},"properties":{"city":"Hamlet","state":"NC","proj_num":5360010,"name":"HAMLET HSG","units":12,"amount":46300}},{"type":"Feature","geometry":{"type":"Point","coordinates":[-79.794,36.073]},"properties":{"city":"Greensboro","state":"NC","proj_num":5340004,"name":"EUGENE APTS","units":8,"amount":50000}},{"type":"Feature","geometry":{"type":"Point","coordinates":[-81.333,35.73]},"properties":{"city":"Hickory","state":"NC","proj_num":5342050,"name":"VIEWMONT APTS INC","units":82,"amount":417000}},{"type":"Feature","geometry":{"type":"Point","coordinates":[-77.046,35.108]},"properties":{"city":"New Bern","state":"NC","proj_num":5360012,"name":"NEW BERNIAN CORP","units":72,"amount":282000}},{"type":"Feature","geometry":{"type":"Point","coordinates":[-80.004,35.954]},"properties":{"city":"High Point","state":"NC","proj_num":5342016,"name":"HILLCREST MANOR","units":76,"amount":553000}},{"type":"Feature","geometry":{"type":"Point","coordinates":[-81.143,36.163]},"properties":{"city":"North Wilkesboro","state":"NC","proj_num":5342005,"name":"HILL HAVEN APTS","units":16,"amount":100000}},{"type":"Feature","geometry":{"type":"Point","coordinates":[-80.264,35.814]},"properties":{"city":"Lexington","state":"NC","proj_num":5342051,"name":"BELLAMY APTS","units":12,"amount":75800}},{"type":"Feature","geometry":{"type":"Point","coordinates":[-77.422,34.749]},"properties":{"city":"Jacksonville","state":"NC","proj_num":5360003,"name":"JACKSONVILLE HSG","units":50,"amount":172500}},{"type":"Feature","geometry":{"type":"Point","coordinates":[-78.642,35.781]},"properties":{"city":"Raleigh","state":"NC","proj_num":5342003,"name":"CAMERON VILLAGE","units":284,"amount":2503800}},{"type":"Feature","geometry":{"type":"Point","coordinates":[-79.762,34.941]},"properties":{"city":"Rockingham","state":"NC","proj_num":5342023,"name":"OAKWOOD COURT","units":20,"amount":125000}},{"type":"Feature","geometry":{"type":"Point","coordinates":[-79.666,36.355]},"properties":{"city":"Reidsville","state":"NC","proj_num":5342015,"name":"REIDSVILLE APTS","units":18,"amount":134700}},{"type":"Feature","geometry":{"type":"Point","coordinates":[-80.471,35.668]},"properties":{"city":"Salisbury","state":"NC","proj_num":5342039,"name":"WESTVIEW COURT","units":33,"amount":219000}},{"type":"Feature","geometry":{"type":"Point","coordinates":[-79.181,35.48]},"properties":{"city":"Sanford","state":"NC","proj_num":5340016,"name":"WEATHERSPOON CRT","units":12,"amount":89000}},{"type":"Feature","geometry":{"type":"Point","coordinates":[-82.994,35.481]},"properties":{"city":"Waynesville","state":"NC","proj_num":5342057,"name":"BALSAM MANOR APTS","units":22,"amount":137315}},{"type":"Feature","geometry":{"type":"Point","coordinates":[-77.946,34.237]},"properties":{"city":"Wilmington","state":"NC","proj_num":5360002,"name":"CAPE FEAR HSG","units":500,"amount":1670000}},{"type":"Feature","geometry":{"type":"Point","coordinates":[-80.244,36.096]},"properties":{"city":"Winston-Salem","state":"NC","proj_num":5340001,"name":"COLLEGE VILG","units":153,"amount":1285000}},{"type":"Feature","geometry":{"type":"Point","coordinates":[-96.785,46.877]},"properties":{"city":"Fargo","state":"ND","proj_num":9140001,"name":"HILLBROOK","units":11,"amount":45000}},{"type":"Feature","geometry":{"type":"Point","coordinates":[-102.874,42.097]},"properties":{"city":"Alliance","state":"NE","proj_num":10342001,"name":"COLONIAL COURT APTS","units":20,"amount":155609}},{"type":"Feature","geometry":{"type":"Point","coordinates":[-96.498,41.436]},"properties":{"city":"Fremont","state":"NE","proj_num":10342002,"name":"FREMONT PROP","units":60,"amount":394000}},{"type":"Feature","geometry":{"type":"Point","coordinates":[-98.351,40.92]},"properties":{"city":"Grand Island","state":"NE","proj_num":10340007,"name":"ABRAHAMSON APTS","units":8,"amount":59100}},{"type":"Feature","geometry":{"type":"Point","coordinates":[-97.359,41.43]},"properties":{"city":"Columbus","state":"NE","proj_num":10342007,"name":"GERRARD COURT","units":20,"amount":126897}},{"type":"Feature","geometry":{"type":"Point","coordinates":[-96.703,40.814]},"properties":{"city":"Lincoln","state":"NE","proj_num":10340001,"name":"COLONIAL TERRACE","units":16,"amount":129000}},{"type":"Feature","geometry":{"type":"Point","coordinates":[-100.764,41.133]},"properties":{"city":"North Platte","state":"NE","proj_num":10342039,"name":"JEFFERSON MANOR","units":16,"amount":99400}},{"type":"Feature","geometry":{"type":"Point","coordinates":[-95.937,41.259]},"properties":{"city":"Omaha","state":"NE","proj_num":10340003,"name":"COHEN SAM - LEAH","units":8,"amount":33000}},{"type":"Feature","geometry":{"type":"Point","coordinates":[-96.414,42.47]},"properties":{"city":"South Sioux City","state":"NE","proj_num":10340008,"name":"CHARTER HOMES 1","units":12,"amount":81000}},{"type":"Feature","geometry":{"type":"Point","coordinates":[-71.537,43.21]},"properties":{"city":"Concord","state":"NH","proj_num":2440001,"name":"VENNE APTS","units":12,"amount":32400}},{"type":"Feature","geometry":{"type":"Point","coordinates":[-72.289,43.701]},"properties":{"city":"Hanover","state":"NH","proj_num":2442006,"name":"VILLAGE APTS","units":14,"amount":118600}},{"type":"Feature","geometry":{"type":"Point","coordinates":[-70.919,43.134]},"properties":{"city":"Durham","state":"NH","proj_num":2442004,"name":"UNIVERSITY APTS","units":20,"amount":119987}},{"type":"Feature","geometry":{"type":"Point","coordinates":[-71.464,42.758]},"properties":{"city":"Nashua","state":"NH","proj_num":2442002,"name":"BERUBE APTS","units":8,"amount":27953}},{"type":"Feature","geometry":{"type":"Point","coordinates":[-70.864,43.264]},"properties":{"city":"Somersworth","state":"NH","proj_num":2442005,"name":"FILION APTS","units":12,"amount":51000}},{"type":"Feature","geometry":{"type":"Point","coordinates":[-74.432,39.361]},"properties":{"city":"Atlantic City","state":"NJ","proj_num":3542027,"name":"MAYFAIR APTS","units":222,"amount":1930000}},{"type":"Feature","geometry":{"type":"Point","coordinates":[-74.117,40.669]},"properties":{"city":"Bayonne","state":"NJ","proj_num":3140022,"name":"BOULEVARD GDNS","units":215,"amount":1675000}},{"type":"Feature","geometry":{"type":"Point","coordinates":[-75.052,39.872]},"properties":{"city":"Barrington","state":"NJ","proj_num":3542040,"name":"BARRINGTON MANOR","units":324,"amount":2262200}},{"type":"Feature","geometry":{"type":"Point","coordinates":[-74.074,40.96]},"properties":{"city":"Bergen County","state":"NJ","proj_num":3142077,"name":"TERRACE GDNS","units":47,"amount":354000}},{"type":"Feature","geometry":{"type":"Point","coordinates":[-74.162,40.795]},"properties":{"city":"Belleville Twp","state":"NJ","proj_num":3140026,"name":"BRANCH BROOK MANR","units":403,"amount":3180000}},{"type":"Feature","geometry":{"type":"Point","coordinates":[-71.463,42.991]},"properties":{"city":"Manchester","state":"NH","proj_num":2442003,"name":"NO UNION HGTS","units":164,"amount":1252900}},{"type":"Feature","geometry":{"type":"Point","coordinates":[-73.996,40.928]},"properties":{"city":"Bergenfield","state":"NJ","proj_num":3142020,"name":"FOSTER VILG SEC A","units":235,"amount":1745500}},{"type":"Feature","geometry":{"type":"Point","coordinates":[-74.187,40.81]},"properties":{"city":"Bloomfield Twp","state":"NJ","proj_num":3142037,"name":"FOREST HILL MANOR","units":350,"amount":2845000}},{"type":"Feature","geometry":{"type":"Point","coordinates":[-74.532,40.562]},"properties":{"city":"Bound Brook","state":"NJ","proj_num":3142255,"name":"BOUND BROOK APTS","units":336,"amount":2107000}},{"type":"Feature","geometry":{"type":"Point","coordinates":[-75.123,39.879]},"properties":{"city":"Brooklawn","state":"NJ","proj_num":3540005,"name":"BROOKLAWN GDNS","units":54,"amount":437400}},{"type":"Feature","geometry":{"type":"Point","coordinates":[-75.234,39.427]},"properties":{"city":"Bridgeton","state":"NJ","proj_num":3542018,"name":"GLEN PARK APTS","units":112,"amount":930000}},{"type":"Feature","geometry":{"type":"Point","coordinates":[-74.304,40.883]},"properties":{"city":"Caldwell Twp","state":"NJ","proj_num":3160021,"name":"RUMSEY PARK","units":60,"amount":225000}},{"type":"Feature","geometry":{"type":"Point","coordinates":[-74.429,40.727]},"properties":{"city":"Chatham Twp","state":"NJ","proj_num":3142204,"name":"KEYDON","units":21,"amount":177000}},{"type":"Feature","geometry":{"type":"Point","coordinates":[-75.069,39.916]},"properties":{"city":"Collingswood","state":"NJ","proj_num":3542006,"name":"9 PK VIEW","units":251,"amount":2236400}},{"type":"Feature","geometry":{"type":"Point","coordinates":[-74.304,40.656]},"properties":{"city":"Cranford Twp.","state":"NJ","proj_num":3140033,"name":"PARKWAY VILLAGE","units":115,"amount":994500}},{"type":"Feature","geometry":{"type":"Point","coordinates":[-73.996,40.94]},"properties":{"city":"Dumont","state":"NJ","proj_num":3140015,"name":"MERRITT GDN APT","units":105,"amount":742900}},{"type":"Feature","geometry":{"type":"Point","coordinates":[-74.208,40.762]},"properties":{"city":"East Orange","state":"NJ","proj_num":3140020,"name":"HARRISON GDNS","units":87,"amount":645000}},{"type":"Feature","geometry":{"type":"Point","coordinates":[-74.995,39.903]},"properties":{"city":"Cherry Hill Twp.","state":"NJ","proj_num":3540042,"name":"PARKWAY APTS","units":362,"amount":2929800}},{"type":"Feature","geometry":{"type":"Point","coordinates":[-74.212,40.662]},"properties":{"city":"Elizabeth","state":"NJ","proj_num":3140027,"name":"MADISON AVE APTS","units":12,"amount":95000}},{"type":"Feature","geometry":{"type":"Point","coordinates":[-74.116,40.9]},"properties":{"city":"Elmwood Park","state":"NJ","proj_num":3140063,"name":"ELMWOOD GDNS","units":426,"amount":3650000}},{"type":"Feature","geometry":{"type":"Point","coordinates":[-73.974,40.894]},"properties":{"city":"Englewood","state":"NJ","proj_num":3140017,"name":"ENGLEWOOD GDNS","units":103,"amount":728000}},{"type":"Feature","geometry":{"type":"Point","coordinates":[-74.132,40.936]},"properties":{"city":"Fair Lawn","state":"NJ","proj_num":3140043,"name":"SANFORD INC","units":94,"amount":730500}},{"type":"Feature","geometry":{"type":"Point","coordinates":[-74.801,40.265]},"properties":{"city":"Ewing Township","state":"NJ","proj_num":3160019,"name":"AMER VICTORY HMS","units":52,"amount":193000}},{"type":"Feature","geometry":{"type":"Point","coordinates":[-73.967,40.851]},"properties":{"city":"Fort Lee","state":"NJ","proj_num":3142066,"name":"WHITMAN MANOR","units":63,"amount":474000}},{"type":"Feature","geometry":{"type":"Point","coordinates":[-74.322,40.652]},"properties":{"city":"Garwood","state":"NJ","proj_num":3140047,"name":"GARWOOD TERR APT","units":24,"amount":151000}},{"type":"Feature","geometry":{"type":"Point","coordinates":[-74.044,40.881]},"properties":{"city":"Hackensack","state":"NJ","proj_num":3142094,"name":"SUMMIT TERRACE","units":81,"amount":720000}},{"type":"Feature","geometry":{"type":"Point","coordinates":[-75.046,39.908]},"properties":{"city":"Haddon Twp.","state":"NJ","proj_num":3542016,"name":"HADDON HILLS SO","units":224,"amount":1814400}},{"type":"Feature","geometry":{"type":"Point","coordinates":[-74.682,40.21]},"properties":{"city":"Hamilton Twp","state":"NJ","proj_num":3160023,"name":"HAMILTON MANOR","units":154,"amount":573000}},{"type":"Feature","geometry":{"type":"Point","coordinates":[-74.229,40.696]},"properties":{"city":"Hillside Twp.","state":"NJ","proj_num":3142295,"name":"HILLSIDE GDNS","units":39,"amount":278000}},{"type":"Feature","geometry":{"type":"Point","coordinates":[-74.232,40.724]},"properties":{"city":"Irvington Twp","state":"NJ","proj_num":3140023,"name":"MITCHELL CT","units":14,"amount":102500}},{"type":"Feature","geometry":{"type":"Point","coordinates":[-74.044,40.717]},"properties":{"city":"Jersey City","state":"NJ","proj_num":3142049,"name":"FLORAL GDNS","units":263,"amount":2177500}},{"type":"Feature","geometry":{"type":"Point","coordinates":[-73.988,40.862]},"properties":{"city":"Leonia","state":"NJ","proj_num":3140008,"name":"LEONIA GDN APTS","units":39,"amount":275000}},{"type":"Feature","geometry":{"type":"Point","coordinates":[-74.25,40.63]},"properties":{"city":"Linden","state":"NJ","proj_num":3140039,"name":"SUNNYFIELD GDN","units":41,"amount":312500}},{"type":"Feature","geometry":{"type":"Point","coordinates":[-74.079,40.883]},"properties":{"city":"Lodi","state":"NJ","proj_num":3142302,"name":"WRIGHT VILG","units":576,"amount":4199000}},{"type":"Feature","geometry":{"type":"Point","coordinates":[-73.993,40.304]},"properties":{"city":"Long Branch","state":"NJ","proj_num":3140034,"name":"CEDAR COURT","units":39,"amount":324000}},{"type":"Feature","geometry":{"type":"Point","coordinates":[-74.415,40.759]},"properties":{"city":"Madison","state":"NJ","proj_num":3140006,"name":"TWN GDNS","units":79,"amount":724000}},{"type":"Feature","geometry":{"type":"Point","coordinates":[-74.498,39.33]},"properties":{"city":"Margate City","state":"NJ","proj_num":3540007,"name":"MARGATE GDNS","units":80,"amount":648000}},{"type":"Feature","geometry":{"type":"Point","coordinates":[-74.271,40.733]},"properties":{"city":"Maplewood Twp.","state":"NJ","proj_num":3140007,"name":"MAPLEWOOD VILLAGE","units":149,"amount":1159500}},{"type":"Feature","geometry":{"type":"Point","coordinates":[-74.23,40.415]},"properties":{"city":"Matawan","state":"NJ","proj_num":3140079,"name":"PROSPECT POINT CO","units":41,"amount":360000}},{"type":"Feature","geometry":{"type":"Point","coordinates":[-74.062,40.903]},"properties":{"city":"Maywood","state":"NJ","proj_num":3140076,"name":"MAYBROOK GDNS","units":120,"amount":923000}},{"type":"Feature","geometry":{"type":"Point","coordinates":[-74.363,40.544]},"properties":{"city":"Metuchen","state":"NJ","proj_num":3140080,"name":"JEFFERSON PARK 1","units":68,"amount":630000}},{"type":"Feature","geometry":{"type":"Point","coordinates":[-74.213,40.822]},"properties":{"city":"Montclair","state":"NJ","proj_num":3140030,"name":"COMMONWEALTH GDNS","units":48,"amount":450000}},{"type":"Feature","geometry":{"type":"Point","coordinates":[-74.482,40.797]},"properties":{"city":"Morristown","state":"NJ","proj_num":3140105,"name":"MORRISTOWN GDNS","units":139,"amount":1104500}},{"type":"Feature","geometry":{"type":"Point","coordinates":[-74.964,39.966]},"properties":{"city":"Moorestown-Lenola","state":"NJ","proj_num":3540018,"name":"PLEASANT VALLEY","units":80,"amount":619200}},{"type":"Feature","geometry":{"type":"Point","coordinates":[-74.444,40.496]},"properties":{"city":"New Brunswick","state":"NJ","proj_num":3160006,"name":"FULTON GDN APTS","units":53,"amount":195000}},{"type":"Feature","geometry":{"type":"Point","coordinates":[-74.017,40.934]},"properties":{"city":"New Milford","state":"NJ","proj_num":3142155,"name":"BROOKCHESTER SEC 1","units":159,"amount":1009969}},{"type":"Feature","geometry":{"type":"Point","coordinates":[-74.941,39.978]},"properties":{"city":"Moorestown Twp","state":"NJ","proj_num":3540022,"name":"MONROE GDN APTS","units":32,"amount":259200}},{"type":"Feature","geometry":{"type":"Point","coordinates":[-74.402,40.698]},"properties":{"city":"New Providence","state":"NJ","proj_num":3142236,"name":"NEW PROVIDENCE","units":151,"amount":1099500}},{"type":"Feature","geometry":{"type":"Point","coordinates":[-74.174,40.732]},"properties":{"city":"Newark","state":"NJ","proj_num":3140001,"name":"STUYVESANT TWN","units":352,"amount":2657000}},{"type":"Feature","geometry":{"type":"Point","coordinates":[-74.133,40.788]},"properties":{"city":"North Arlington","state":"NJ","proj_num":3140004,"name":"RIVERVIEW GDN 3","units":130,"amount":830000}},{"type":"Feature","geometry":{"type":"Point","coordinates":[-74.025,40.794]},"properties":{"city":"North Bergen Twp.","state":"NJ","proj_num":3142111,"name":"WOODCLIFF SEC 1","units":240,"amount":2046000}},{"type":"Feature","geometry":{"type":"Point","coordinates":[-74.157,40.819]},"properties":{"city":"Nutley Twp","state":"NJ","proj_num":3142035,"name":"NUTLEY BRIARWOOD","units":80,"amount":632000}},{"type":"Feature","geometry":{"type":"Point","coordinates":[-74.235,40.768]},"properties":{"city":"Orange Twp","state":"NJ","proj_num":3140065,"name":"GARDEN COURT","units":60,"amount":458500}},{"type":"Feature","geometry":{"type":"Point","coordinates":[-73.998,40.848]},"properties":{"city":"Palisades Park","state":"NJ","proj_num":3140005,"name":"PALISADES MANOR","units":35,"amount":246000}},{"type":"Feature","geometry":{"type":"Point","coordinates":[-74.126,40.86]},"properties":{"city":"Passaic","state":"NJ","proj_num":3142091,"name":"LEXINGTON GDNS","units":108,"amount":886000}},{"type":"Feature","geometry":{"type":"Point","coordinates":[-74.172,40.917]},"properties":{"city":"Paterson","state":"NJ","proj_num":3142090,"name":"BARBOUR APTS","units":50,"amount":309000}},{"type":"Feature","geometry":{"type":"Point","coordinates":[-75.24,39.83]},"properties":{"city":"Paulsboro","state":"NJ","proj_num":3542041,"name":"PAULSBORO APTS","units":150,"amount":1003817}},{"type":"Feature","geometry":{"type":"Point","coordinates":[-74.269,40.511]},"properties":{"city":"Perth Amboy","state":"NJ","proj_num":3142182,"name":"BAYVIEW APTS","units":42,"amount":366500}},{"type":"Feature","geometry":{"type":"Point","coordinates":[-75.056,39.965]},"properties":{"city":"Pennsauken Twp.","state":"NJ","proj_num":3540045,"name":"PENN MANOR APTS","units":44,"amount":356400}},{"type":"Feature","geometry":{"type":"Point","coordinates":[-74.417,40.615]},"properties":{"city":"Plainfield","state":"NJ","proj_num":3140025,"name":"TRELAWN TERRACE","units":107,"amount":737300}},{"type":"Feature","geometry":{"type":"Point","coordinates":[-74.522,39.392]},"properties":{"city":"Pleasantville","state":"NJ","proj_num":3542038,"name":"PLEASANTVILLE APT","units":232,"amount":1680000}},{"type":"Feature","geometry":{"type":"Point","coordinates":[-74.278,40.606]},"properties":{"city":"Rahway","state":"NJ","proj_num":3140061,"name":"HAZELWOOD APTS","units":32,"amount":228000}},{"type":"Feature","geometry":{"type":"Point","coordinates":[-74.065,40.347]},"properties":{"city":"Red Bank","state":"NJ","proj_num":3140042,"name":"SHREWSBURY MANOR","units":16,"amount":141000}},{"type":"Feature","geometry":{"type":"Point","coordinates":[-74.01,40.83]},"properties":{"city":"Ridgefield","state":"NJ","proj_num":3140003,"name":"VALLEY PK VILLAGE","units":53,"amount":425000}},{"type":"Feature","geometry":{"type":"Point","coordinates":[-74.264,40.66]},"properties":{"city":"Roselle","state":"NJ","proj_num":3140067,"name":"OAK TREE VILLAGE","units":93,"amount":661000}},{"type":"Feature","geometry":{"type":"Point","coordinates":[-74.034,40.926]},"properties":{"city":"River Edge","state":"NJ","proj_num":3140041,"name":"RIVER EDGE GDNS","units":100,"amount":843500}},{"type":"Feature","geometry":{"type":"Point","coordinates":[-74.265,40.665]},"properties":{"city":"Roselle Park","state":"NJ","proj_num":3140110,"name":"COLFAX MANOR","units":191,"amount":1631000}},{"type":"Feature","geometry":{"type":"Point","coordinates":[-74.109,40.826]},"properties":{"city":"Rutherford","state":"NJ","proj_num":3140031,"name":"RUTHERFORD GDN","units":42,"amount":271500}},{"type":"Feature","geometry":{"type":"Point","coordinates":[-74.612,40.568]},"properties":{"city":"Somerville","state":"NJ","proj_num":3160008,"name":"SOMERVILLE GDNS","units":56,"amount":196000}},{"type":"Feature","geometry":{"type":"Point","coordinates":[-74.359,40.718]},"properties":{"city":"Summit","state":"NJ","proj_num":3140077,"name":"SPRING HILL CORP","units":52,"amount":481500}},{"type":"Feature","geometry":{"type":"Point","coordinates":[-74.011,40.89]},"properties":{"city":"Teaneck Twp.","state":"NJ","proj_num":3140010,"name":"CEDAR HOLDING","units":102,"amount":748000}},{"type":"Feature","geometry":{"type":"Point","coordinates":[-74.26,40.749]},"properties":{"city":"South Orange Villa","state":"NJ","proj_num":3140040,"name":"ACADEMY ARMS","units":22,"amount":169000}},{"type":"Feature","geometry":{"type":"Point","coordinates":[-74.024,40.779]},"properties":{"city":"Union City","state":"NJ","proj_num":3142095,"name":"COLONIAL TOWERS","units":26,"amount":210500}},{"type":"Feature","geometry":{"type":"Point","coordinates":[-74.198,39.953]},"properties":{"city":"Toms River","state":"NJ","proj_num":3542022,"name":"PK MANOR APTS","units":16,"amount":129000}},{"type":"Feature","geometry":{"type":"Point","coordinates":[-74.967,40.634]},"properties":{"city":"Union Twp.","state":"NJ","proj_num":3142056,"name":"UNION VILLAGE","units":91,"amount":664500}},{"type":"Feature","geometry":{"type":"Point","coordinates":[-74.243,40.833]},"properties":{"city":"Verona Twp","state":"NJ","proj_num":3140011,"name":"GREEN ACRES","units":156,"amount":1312500}},{"type":"Feature","geometry":{"type":"Point","coordinates":[-74.009,40.786]},"properties":{"city":"West New York","state":"NJ","proj_num":3142280,"name":"RIVERSIDE APTS","units":84,"amount":718000}},{"type":"Feature","geometry":{"type":"Point","coordinates":[-74.343,40.649]},"properties":{"city":"Westfield","state":"NJ","proj_num":3160030,"name":"471 TREMONT AVE","units":40,"amount":170000}},{"type":"Feature","geometry":{"type":"Point","coordinates":[-74.27,40.793]},"properties":{"city":"West Orange","state":"NJ","proj_num":3140046,"name":"OXFORD GDNS","units":8,"amount":64500}},{"type":"Feature","geometry":{"type":"Point","coordinates":[-75.132,39.864]},"properties":{"city":"Westville","state":"NJ","proj_num":3542033,"name":"HIGHLAND PARK APT","units":320,"amount":2264000}},{"type":"Feature","geometry":{"type":"Point","coordinates":[-74.814,38.992]},"properties":{"city":"Wildwood","state":"NJ","proj_num":3542012,"name":"SEAWYN COURT","units":28,"amount":226800}},{"type":"Feature","geometry":{"type":"Point","coordinates":[-75.153,39.838]},"properties":{"city":"Woodbury","state":"NJ","proj_num":3542017,"name":"OAKWOOD MANOR ANX","units":96,"amount":737400}},{"type":"Feature","geometry":{"type":"Point","coordinates":[-74.293,40.561]},"properties":{"city":"Woodbridge Twp.","state":"NJ","proj_num":3142190,"name":"WOODBRIDGE APTS","units":52,"amount":381000}},{"type":"Feature","geometry":{"type":"Point","coordinates":[-75.328,39.652]},"properties":{"city":"Woodstown","state":"NJ","proj_num":3542024,"name":"WOODSTOWN VILLA","units":76,"amount":615600}},{"type":"Feature","geometry":{"type":"Point","coordinates":[-106.649,35.084]},"properties":{"city":"Albuquerque","state":"NM","proj_num":11642002,"name":"APTS FOR PEGGY","units":12,"amount":73300}},{"type":"Feature","geometry":{"type":"Point","coordinates":[-104.523,33.393]},"properties":{"city":"Roswell","state":"NM","proj_num":11642005,"name":"PONTIAC APTS","units":16,"amount":118600}},{"type":"Feature","geometry":{"type":"Point","coordinates":[-105.94,35.692]},"properties":{"city":"Santa Fe","state":"NM","proj_num":11642013,"name":"CASA BARBARA APTS","units":12,"amount":97878}},{"type":"Feature","geometry":{"type":"Point","coordinates":[-115.141,36.169]},"properties":{"city":"Las Vegas","state":"NV","proj_num":12540002,"name":"MARYLAND PROP","units":16,"amount":112000}},{"type":"Feature","geometry":{"type":"Point","coordinates":[-119.813,39.527]},"properties":{"city":"Reno","state":"NV","proj_num":12542011,"name":"REGINA MARIE = 1","units":24,"amount":179200}},{"type":"Feature","geometry":{"type":"Point","coordinates":[-73.755,42.652]},"properties":{"city":"Albany","state":"NY","proj_num":1340032,"name":"SLINGERLANDS APTS","units":24,"amount":0}},{"type":"Feature","geometry":{"type":"Point","coordinates":[-74.19,42.938]},"properties":{"city":"Amsterdam","state":"NY","proj_num":1342009,"name":"AMSTERDAM APTS","units":66,"amount":545000}},{"type":"Feature","geometry":{"type":"Point","coordinates":[-78.757,43.012]},"properties":{"city":"Amherst Town","state":"NY","proj_num":1442044,"name":"CAMPUS COURT","units":160,"amount":1385400}},{"type":"Feature","geometry":{"type":"Point","coordinates":[-73.247,40.722]},"properties":{"city":"Bay Shore","state":"NY","proj_num":1242197,"name":"BAYSHORE GARDENS","units":112,"amount":911500}},{"type":"Feature","geometry":{"type":"Point","coordinates":[-73.72,40.725]},"properties":{"city":"Bellerose","state":"NY","proj_num":1240164,"name":"TRI-JAX GDNS","units":38,"amount":357300}},{"type":"Feature","geometry":{"type":"Point","coordinates":[-77.308,42.322]},"properties":{"city":"Bath Town","state":"NY","proj_num":1442008,"name":"COLONIAL LAWNS","units":52,"amount":446000}},{"type":"Feature","geometry":{"type":"Point","coordinates":[-75.913,42.099]},"properties":{"city":"Binghamton","state":"NY","proj_num":1440055,"name":"LOUISA MANOR","units":14,"amount":102600}},{"type":"Feature","geometry":{"type":"Point","coordinates":[-78.747,42.908]},"properties":{"city":"Cheektowaga Town","state":"NY","proj_num":1440011,"name":"CHAPEL COURT","units":20,"amount":162000}},{"type":"Feature","geometry":{"type":"Point","coordinates":[-74.239,44.48]},"properties":{"city":"Brighton Town","state":"NY","proj_num":1542010,"name":"500 HIGHLAND","units":190,"amount":1589000}},{"type":"Feature","geometry":{"type":"Point","coordinates":[-77.052,42.143]},"properties":{"city":"Corning","state":"NY","proj_num":1440008,"name":"CRYSTAL GDNS","units":20,"amount":149400}},{"type":"Feature","geometry":{"type":"Point","coordinates":[-73.787,42.74]},"properties":{"city":"Colonie Town","state":"NY","proj_num":1360001,"name":"SCHUYLER HGTS","units":77,"amount":350000}},{"type":"Feature","geometry":{"type":"Point","coordinates":[-73.885,43.227]},"properties":{"city":"Corinth Town","state":"NY","proj_num":1340002,"name":"WHITE APTS","units":16,"amount":86100}},{"type":"Feature","geometry":{"type":"Point","coordinates":[-76.065,42.097]},"properties":{"city":"Endicott","state":"NY","proj_num":1442009,"name":"ALAN VILLAGE","units":38,"amount":329300}},{"type":"Feature","geometry":{"type":"Point","coordinates":[-76.808,42.09]},"properties":{"city":"Elmira","state":"NY","proj_num":1442045,"name":"EVANS APTS","units":12,"amount":90200}},{"type":"Feature","geometry":{"type":"Point","coordinates":[-78.78,42.758]},"properties":{"city":"Erie County","state":"NY","proj_num":1442003,"name":"SNYDER","units":160,"amount":1533600}},{"type":"Feature","geometry":{"type":"Point","coordinates":[-73.58,40.654]},"properties":{"city":"Freeport","state":"NY","proj_num":1242044,"name":"PLEASANTVILLE GARDENS","units":30,"amount":248500}},{"type":"Feature","geometry":{"type":"Point","coordinates":[-73.729,40.801]},"properties":{"city":"Great Neck","state":"NY","proj_num":1242128,"name":"PARK VIEW APTS","units":54,"amount":455300}},{"type":"Feature","geometry":{"type":"Point","coordinates":[-78.963,43.036]},"properties":{"city":"Grand Island","state":"NY","proj_num":1442051,"name":"GRANDYLE VILLAGE","units":172,"amount":1396817}},{"type":"Feature","geometry":{"type":"Point","coordinates":[-76.794,42.163]},"properties":{"city":"Horseheads Town","state":"NY","proj_num":1440025,"name":"LAKELAND HMS","units":32,"amount":300000}},{"type":"Feature","geometry":{"type":"Point","coordinates":[-73.62,40.707]},"properties":{"city":"Hempstead","state":"NY","proj_num":1240067,"name":"PETERS FARM ESTATES","units":240,"amount":2228400}},{"type":"Feature","geometry":{"type":"Point","coordinates":[-73.936,41.791]},"properties":{"city":"Hyde Park","state":"NY","proj_num":1242217,"name":"SPRINGWOOD VILLAGE","units":70,"amount":620200}},{"type":"Feature","geometry":{"type":"Point","coordinates":[-73.426,40.871]},"properties":{"city":"Huntington","state":"NY","proj_num":1240126,"name":"HUNTINGTON PARK","units":100,"amount":955000}},{"type":"Feature","geometry":{"type":"Point","coordinates":[-76.496,42.44]},"properties":{"city":"Ithaca","state":"NY","proj_num":1440035,"name":"AURORA HGTS","units":58,"amount":481800}},{"type":"Feature","geometry":{"type":"Point","coordinates":[-73.998,41.927]},"properties":{"city":"Kingston","state":"NY","proj_num":1242446,"name":"HILLCREST GARDENS","units":74,"amount":645500}},{"type":"Feature","geometry":{"type":"Point","coordinates":[-77.571,43.21]},"properties":{"city":"Irondequoit Town","state":"NY","proj_num":1542020,"name":"STRATHMORE VILLGE","units":195,"amount":1278300}},{"type":"Feature","geometry":{"type":"Point","coordinates":[-78.824,42.816]},"properties":{"city":"Lackawanna","state":"NY","proj_num":1440002,"name":"MC KINLEY CTS","units":64,"amount":423800}},{"type":"Feature","geometry":{"type":"Point","coordinates":[-73.751,40.93]},"properties":{"city":"Larchmont","state":"NY","proj_num":1240079,"name":"LARCHMONT PROP","units":268,"amount":2238000}},{"type":"Feature","geometry":{"type":"Point","coordinates":[-73.635,40.746]},"properties":{"city":"Mineola","state":"NY","proj_num":1242254,"name":"YORKSHIRE TOWNE","units":56,"amount":470600}},{"type":"Feature","geometry":{"type":"Point","coordinates":[-78.697,43.169]},"properties":{"city":"Lockport","state":"NY","proj_num":1442037,"name":"SOUTH PARK APTS","units":56,"amount":423800}},{"type":"Feature","geometry":{"type":"Point","coordinates":[-73.688,40.735]},"properties":{"city":"New Hyde Park","state":"NY","proj_num":1242280,"name":"LINDEN GROVE APTS","units":156,"amount":1322900}},{"type":"Feature","geometry":{"type":"Point","coordinates":[-73.782,40.912]},"properties":{"city":"New Rochelle","state":"NY","proj_num":1242207,"name":"DAVENPORT NECK","units":210,"amount":0}},{"type":"Feature","geometry":{"type":"Point","coordinates":[-79.242,42.099]},"properties":{"city":"Jamestown","state":"NY","proj_num":1442041,"name":"HUNT-ROAD APTS","units":48,"amount":365700}},{"type":"Feature","geometry":{"type":"Point","coordinates":[-73.92,40.826]},"properties":{"city":"New York-Bronx","state":"NY","proj_num":1240159,"name":"FRANREG HOLDING COMPANY","units":31,"amount":229000}},{"type":"Feature","geometry":{"type":"Point","coordinates":[-73.95,40.634]},"properties":{"city":"New York-Brooklyn","state":"NY","proj_num":1240081,"name":"STANFAE REALTY","units":18,"amount":0}},{"type":"Feature","geometry":{"type":"Point","coordinates":[-74.004,40.753]},"properties":{"city":"New York-Manhattan","state":"NY","proj_num":1240110,"name":"DENDAR REALTIES","units":42,"amount":328300}},{"type":"Feature","geometry":{"type":"Point","coordinates":[-73.839,40.658]},"properties":{"city":"New York-Queens","state":"NY","proj_num":1240009,"name":"KEW GARDENS","units":378,"amount":3510000}},{"type":"Feature","geometry":{"type":"Point","coordinates":[-74.021,41.501]},"properties":{"city":"Newburgh","state":"NY","proj_num":1242445,"name":"CAROLINE COURTS","units":120,"amount":1057000}},{"type":"Feature","geometry":{"type":"Point","coordinates":[-79.056,43.094]},"properties":{"city":"Niagara Falls","state":"NY","proj_num":1460002,"name":"WINGHILL INC","units":42,"amount":170000}},{"type":"Feature","geometry":{"type":"Point","coordinates":[-78.43,42.077]},"properties":{"city":"Olean","state":"NY","proj_num":1440032,"name":"OLEAN ESTATES","units":24,"amount":194000}},{"type":"Feature","geometry":{"type":"Point","coordinates":[-77.613,43.156]},"properties":{"city":"Rochester","state":"NY","proj_num":1440005,"name":"FREDERICK APTS","units":31,"amount":243000}},{"type":"Feature","geometry":{"type":"Point","coordinates":[-73.947,41.053]},"properties":{"city":"Orangetown Town","state":"NY","proj_num":1240082,"name":"D L M REALTY","units":64,"amount":540300}},{"type":"Feature","geometry":{"type":"Point","coordinates":[-73.64,40.662]},"properties":{"city":"Rockville Centre","state":"NY","proj_num":1242258,"name":"ROCKVILLE-LEWIS","units":74,"amount":634100}},{"type":"Feature","geometry":{"type":"Point","coordinates":[-73.651,40.8]},"properties":{"city":"Roslyn","state":"NY","proj_num":1240002,"name":"ROSLYN APT CORP","units":109,"amount":819700}},{"type":"Feature","geometry":{"type":"Point","coordinates":[-75.455,43.213]},"properties":{"city":"Rome","state":"NY","proj_num":1342020,"name":"ROSE GARDEN APTS","units":125,"amount":1018100}},{"type":"Feature","geometry":{"type":"Point","coordinates":[-73.944,42.814]},"properties":{"city":"Schenectady","state":"NY","proj_num":1340038,"name":"HILLSIDE GARDEN APTS","units":24,"amount":199600}},{"type":"Feature","geometry":{"type":"Point","coordinates":[-73.688,41.006]},"properties":{"city":"Rye Town","state":"NY","proj_num":1242019,"name":"RYE COLONY","units":158,"amount":1436800}},{"type":"Feature","geometry":{"type":"Point","coordinates":[-78.879,43.017]},"properties":{"city":"Tonawanda","state":"NY","proj_num":1440037,"name":"RIVERVIEW COURTS","units":96,"amount":707200}},{"type":"Feature","geometry":{"type":"Point","coordinates":[-76.147,43.048]},"properties":{"city":"Syracuse","state":"NY","proj_num":1340036,"name":"Morton","units":84,"amount":735000}},{"type":"Feature","geometry":{"type":"Point","coordinates":[-76.79,42.914]},"properties":{"city":"Seneca Falls Town","state":"NY","proj_num":1542011,"name":"MAPLE GROVE APTS","units":78,"amount":542000}},{"type":"Feature","geometry":{"type":"Point","coordinates":[-78.878,42.985]},"properties":{"city":"Tonawanda Town","state":"NY","proj_num":1442018,"name":"HIGHLAND APTS","units":18,"amount":148000}},{"type":"Feature","geometry":{"type":"Point","coordinates":[-73.898,40.931]},"properties":{"city":"Yonkers","state":"NY","proj_num":1242011,"name":"RIVER ROAD","units":61,"amount":458900}},{"type":"Feature","geometry":{"type":"Point","coordinates":[-75.23,43.102]},"properties":{"city":"Utica","state":"NY","proj_num":1342027,"name":"SUNSET APTS","units":32,"amount":245000}},{"type":"Feature","geometry":{"type":"Point","coordinates":[-80.787,41.869]},"properties":{"city":"Ashtabula","state":"OH","proj_num":4260048,"name":"HELEN LEFTON","units":16,"amount":81000}},{"type":"Feature","geometry":{"type":"Point","coordinates":[-81.106,40.913]},"properties":{"city":"Alliance","state":"OH","proj_num":4242034,"name":"MANHEIM APTS","units":16,"amount":112000}},{"type":"Feature","geometry":{"type":"Point","coordinates":[-73.691,42.728]},"properties":{"city":"Troy","state":"NY","proj_num":1342019,"name":"DUNE GARDEN APTS","units":191,"amount":1590800}},{"type":"Feature","geometry":{"type":"Point","coordinates":[-84.328,41.673]},"properties":{"city":"Bal Of Fayette","state":"OH","proj_num":4340007,"name":"HIGH RIVERGLEN","units":8,"amount":60000}},{"type":"Feature","geometry":{"type":"Point","coordinates":[-83.76,40.36]},"properties":{"city":"Bellefontaine","state":"OH","proj_num":4342052,"name":"BELLEFONTAINE HMS","units":16,"amount":129000}},{"type":"Feature","geometry":{"type":"Point","coordinates":[-84.346,39.249]},"properties":{"city":"Bal Of Montgomery","state":"OH","proj_num":4342070,"name":"AUBORNEDALE GDNS","units":298,"amount":2015000}},{"type":"Feature","geometry":{"type":"Point","coordinates":[-81.854,41.366]},"properties":{"city":"Berea","state":"OH","proj_num":4260010,"name":"TOWNHOUSE INC","units":45,"amount":195000}},{"type":"Feature","geometry":{"type":"Point","coordinates":[-80.762,41.462]},"properties":{"city":"Bal Of Greene","state":"OH","proj_num":4360037,"name":"LOVELAND INC","units":32,"amount":162700}},{"type":"Feature","geometry":{"type":"Point","coordinates":[-84.514,39.127]},"properties":{"city":"Cincinnati","state":"OH","proj_num":4340019,"name":"READING LANE APTS","units":16,"amount":135500}},{"type":"Feature","geometry":{"type":"Point","coordinates":[-81.377,40.797]},"properties":{"city":"Canton","state":"OH","proj_num":4240012,"name":"MARSH CONSTR","units":12,"amount":96000}},{"type":"Feature","geometry":{"type":"Point","coordinates":[-81.691,41.505]},"properties":{"city":"Cleveland","state":"OH","proj_num":4260016,"name":"S + S CONST CO","units":27,"amount":128000}},{"type":"Feature","geometry":{"type":"Point","coordinates":[-82.996,39.963]},"properties":{"city":"Columbus","state":"OH","proj_num":4340005,"name":"COLONIAL MANOR","units":20,"amount":160500}},{"type":"Feature","geometry":{"type":"Point","coordinates":[-81.484,41.136]},"properties":{"city":"Cuyahoga Falls","state":"OH","proj_num":4240017,"name":"HESLOP APTS 1","units":12,"amount":101100}},{"type":"Feature","geometry":{"type":"Point","coordinates":[-84.192,39.761]},"properties":{"city":"Dayton","state":"OH","proj_num":4340016,"name":"NAT RLTY DEV","units":42,"amount":196500}},{"type":"Feature","geometry":{"type":"Point","coordinates":[-81.583,41.53]},"properties":{"city":"East Cleveland","state":"OH","proj_num":4260008,"name":"S + I REALTY CO","units":35,"amount":162500}},{"type":"Feature","geometry":{"type":"Point","coordinates":[-81.527,41.599]},"properties":{"city":"Euclid","state":"OH","proj_num":4242004,"name":"NATIONAL LIFE INSURANCE CO","units":10,"amount":81000}},{"type":"Feature","geometry":{"type":"Point","coordinates":[-83.009,39.97]},"properties":{"city":"Franklin County","state":"OH","proj_num":4340002,"name":"HIGH RIVERGLEN","units":16,"amount":118800}},{"type":"Feature","geometry":{"type":"Point","coordinates":[-84.56,39.335]},"properties":{"city":"Fairfield","state":"OH","proj_num":4340060,"name":"THE CARMELITA","units":10,"amount":87400}},{"type":"Feature","geometry":{"type":"Point","coordinates":[-84.559,39.399]},"properties":{"city":"Hamilton","state":"OH","proj_num":4340014,"name":"HAMILTON COLO APT","units":24,"amount":95300}},{"type":"Feature","geometry":{"type":"Point","coordinates":[-80.569,41.156]},"properties":{"city":"Hubbard","state":"OH","proj_num":4242024,"name":"PARK AVE APTS","units":14,"amount":104700}},{"type":"Feature","geometry":{"type":"Point","coordinates":[-81.805,41.478]},"properties":{"city":"Lakewood","state":"OH","proj_num":4240016,"name":"CLIFTON FRENCH","units":11,"amount":83500}},{"type":"Feature","geometry":{"type":"Point","coordinates":[-84.379,39.147]},"properties":{"city":"Mariemont","state":"OH","proj_num":4340029,"name":"PARK VIEW APTS","units":12,"amount":94500}},{"type":"Feature","geometry":{"type":"Point","coordinates":[-82.406,40.057]},"properties":{"city":"Newark","state":"OH","proj_num":4360036,"name":"VICTORY VILLAGE","units":16,"amount":76000}},{"type":"Feature","geometry":{"type":"Point","coordinates":[-81.457,39.42]},"properties":{"city":"Marietta","state":"OH","proj_num":4342071,"name":"OHIO VALLEY APTS","units":18,"amount":145038}},{"type":"Feature","geometry":{"type":"Point","coordinates":[-82.515,40.759]},"properties":{"city":"Mansfield","state":"OH","proj_num":4242010,"name":"LYNWOOD APTS","units":12,"amount":99000}},{"type":"Feature","geometry":{"type":"Point","coordinates":[-84.174,39.717]},"properties":{"city":"Oakwood","state":"OH","proj_num":4360045,"name":"NATIONAL REALTY","units":14,"amount":69500}},{"type":"Feature","geometry":{"type":"Point","coordinates":[-81.735,41.384]},"properties":{"city":"Parma","state":"OH","proj_num":4242006,"name":"CLEVELAND PKWY GR","units":449,"amount":2887575}},{"type":"Feature","geometry":{"type":"Point","coordinates":[-82.985,38.74]},"properties":{"city":"Portsmouth","state":"OH","proj_num":4342045,"name":"SCIOTO TRAIL APTS","units":29,"amount":206000}},{"type":"Feature","geometry":{"type":"Point","coordinates":[-83.132,40.589]},"properties":{"city":"Marion","state":"OH","proj_num":4342103,"name":"801 WINDSOR CORP","units":46,"amount":332500}},{"type":"Feature","geometry":{"type":"Point","coordinates":[-81.853,41.467]},"properties":{"city":"Rocky River","state":"OH","proj_num":4240034,"name":"WOOSTER APTS","units":16,"amount":148000}},{"type":"Feature","geometry":{"type":"Point","coordinates":[-81.565,41.464]},"properties":{"city":"Shaker Heights","state":"OH","proj_num":4240014,"name":"SHAKE CLUB APTS","units":158,"amount":1420600}},{"type":"Feature","geometry":{"type":"Point","coordinates":[-81.519,41.523]},"properties":{"city":"South Euclid","state":"OH","proj_num":4240008,"name":"MAYFLOWER VILG","units":72,"amount":633163}},{"type":"Feature","geometry":{"type":"Point","coordinates":[-83.069,40.025]},"properties":{"city":"Upper Arlington","state":"OH","proj_num":4342058,"name":"ARLINGTON ARMS","units":8,"amount":69400}},{"type":"Feature","geometry":{"type":"Point","coordinates":[-83.81,39.925]},"properties":{"city":"Springfield","state":"OH","proj_num":4342067,"name":"CARPENTER APTS","units":12,"amount":105000}},{"type":"Feature","geometry":{"type":"Point","coordinates":[-80.816,41.236]},"properties":{"city":"Warren","state":"OH","proj_num":4260003,"name":"WARREN APTS","units":37,"amount":155989}},{"type":"Feature","geometry":{"type":"Point","coordinates":[-83.02,40.089]},"properties":{"city":"Worthington","state":"OH","proj_num":4340024,"name":"NASSAU APTS","units":24,"amount":191000}},{"type":"Feature","geometry":{"type":"Point","coordinates":[-95.944,36.751]},"properties":{"city":"Bartlesville","state":"OK","proj_num":11840018,"name":"CRESTVIEW INV CO","units":27,"amount":198000}},{"type":"Feature","geometry":{"type":"Point","coordinates":[-99.405,35.412]},"properties":{"city":"Elk City","state":"OK","proj_num":11742029,"name":"MORNING SIDE 1","units":8,"amount":48000}},{"type":"Feature","geometry":{"type":"Point","coordinates":[-97.96,34.502]},"properties":{"city":"Duncan","state":"OK","proj_num":11760001,"name":"TULSA DEFENSE HSG","units":32,"amount":123700}},{"type":"Feature","geometry":{"type":"Point","coordinates":[-97.878,36.393]},"properties":{"city":"Enid","state":"OK","proj_num":11742009,"name":"WALLACE SOUTHMOOR","units":20,"amount":12750}},{"type":"Feature","geometry":{"type":"Point","coordinates":[-101.482,36.683]},"properties":{"city":"Guymon","state":"OK","proj_num":11742036,"name":"KENNEDY APTS","units":12,"amount":75000}},{"type":"Feature","geometry":{"type":"Point","coordinates":[-95.983,35.44]},"properties":{"city":"Henryetta","state":"OK","proj_num":11840023,"name":"HENRIETTA APTS","units":32,"amount":197000}},{"type":"Feature","geometry":{"type":"Point","coordinates":[-98.397,34.606]},"properties":{"city":"Lawton","state":"OK","proj_num":11740016,"name":"EVANS APTS","units":12,"amount":70000}},{"type":"Feature","geometry":{"type":"Point","coordinates":[-97.546,35.552]},"properties":{"city":"Nichols Hills","state":"OK","proj_num":11740038,"name":"GREENWOOD CO","units":18,"amount":123000}},{"type":"Feature","geometry":{"type":"Point","coordinates":[-97.446,35.221]},"properties":{"city":"Norman","state":"OK","proj_num":11742006,"name":"UNIVERSITY PLACE","units":12,"amount":45000}},{"type":"Feature","geometry":{"type":"Point","coordinates":[-97.521,35.468]},"properties":{"city":"Oklahoma City","state":"OK","proj_num":11740002,"name":"CAPITAL APTS","units":23,"amount":153000}},{"type":"Feature","geometry":{"type":"Point","coordinates":[-95.972,35.623]},"properties":{"city":"Okmulgee","state":"OK","proj_num":11840004,"name":"GENERAL REALTY CO","units":16,"amount":114000}},{"type":"Feature","geometry":{"type":"Point","coordinates":[-96.669,35.224]},"properties":{"city":"Seminole","state":"OK","proj_num":11740007,"name":"FUGUA APTS","units":8,"amount":55000}},{"type":"Feature","geometry":{"type":"Point","coordinates":[-97.059,36.11]},"properties":{"city":"Stillwater","state":"OK","proj_num":11740046,"name":"COLLEGE HOMES","units":24,"amount":194000}},{"type":"Feature","geometry":{"type":"Point","coordinates":[-95.992,36.155]},"properties":{"city":"Tulsa","state":"OK","proj_num":11840021,"name":"WESTVIEW APTS","units":25,"amount":194000}},{"type":"Feature","geometry":{"type":"Point","coordinates":[-123.835,46.189]},"properties":{"city":"Astoria","state":"OR","proj_num":12660014,"name":"ASTORIA HOMES INC","units":24,"amount":102000}},{"type":"Feature","geometry":{"type":"Point","coordinates":[-122.569,45.408]},"properties":{"city":"Bal Of Clackamas","state":"OR","proj_num":12640026,"name":"OSWEGO APTS","units":27,"amount":204300}},{"type":"Feature","geometry":{"type":"Point","coordinates":[-123.278,44.572]},"properties":{"city":"Corvallis","state":"OR","proj_num":12660019,"name":"WILSON WOODS","units":40,"amount":188600}},{"type":"Feature","geometry":{"type":"Point","coordinates":[-121.315,44.058]},"properties":{"city":"Bend","state":"OR","proj_num":12660017,"name":"RIVER TERR VILLA","units":40,"amount":179100}},{"type":"Feature","geometry":{"type":"Point","coordinates":[-122.796,45.487]},"properties":{"city":"Beaverton","state":"OR","proj_num":12640044,"name":"CEDAR CREST MANOR","units":100,"amount":846800}},{"type":"Feature","geometry":{"type":"Point","coordinates":[-123.106,44.637]},"properties":{"city":"Albany","state":"OR","proj_num":12660016,"name":"JANSEN INV CO","units":32,"amount":143000}},{"type":"Feature","geometry":{"type":"Point","coordinates":[-123.091,44.052]},"properties":{"city":"Eugene","state":"OR","proj_num":12642058,"name":"KETELL ARMS","units":71,"amount":581400}},{"type":"Feature","geometry":{"type":"Point","coordinates":[-122.668,45.421]},"properties":{"city":"Lake Oswego","state":"OR","proj_num":12642002,"name":"OSWEGO LAKE SHORE","units":58,"amount":461700}},{"type":"Feature","geometry":{"type":"Point","coordinates":[-123.317,44.919]},"properties":{"city":"Dallas","state":"OR","proj_num":12642075,"name":"JOAN COURT APTS","units":15,"amount":97000}},{"type":"Feature","geometry":{"type":"Point","coordinates":[-122.872,42.327]},"properties":{"city":"Medford","state":"OR","proj_num":12642039,"name":"BARNES APTS","units":8,"amount":57500}},{"type":"Feature","geometry":{"type":"Point","coordinates":[-124.224,43.407]},"properties":{"city":"North Bend","state":"OR","proj_num":12640020,"name":"SKYLINE HOMES","units":31,"amount":216300}},{"type":"Feature","geometry":{"type":"Point","coordinates":[-116.976,44.025]},"properties":{"city":"Ontario","state":"OR","proj_num":12442009,"name":"ADRIAN MANOR","units":17,"amount":130000}},{"type":"Feature","geometry":{"type":"Point","coordinates":[-122.681,45.516]},"properties":{"city":"Portland","state":"OR","proj_num":12640027,"name":"THE HOSELDORF","units":9,"amount":0}},{"type":"Feature","geometry":{"type":"Point","coordinates":[-121.174,44.273]},"properties":{"city":"Redmond","state":"OR","proj_num":12660015,"name":"JANSEN COURTS","units":24,"amount":107400}},{"type":"Feature","geometry":{"type":"Point","coordinates":[-123.345,43.21]},"properties":{"city":"Roseburg","state":"OR","proj_num":12640009,"name":"VISTA HOMES","units":24,"amount":197900}},{"type":"Feature","geometry":{"type":"Point","coordinates":[-75.217,40.157]},"properties":{"city":"Ambler","state":"PA","proj_num":3442010,"name":"LEWIS LAND DEV","units":40,"amount":309600}},{"type":"Feature","geometry":{"type":"Point","coordinates":[-75.231,40.009]},"properties":{"city":"Bala Cynwyd","state":"PA","proj_num":3440006,"name":"BARTON APTS","units":14,"amount":104037}},{"type":"Feature","geometry":{"type":"Point","coordinates":[-122.614,45.367]},"properties":{"city":"West Linn","state":"OR","proj_num":12640017,"name":"CROWN COURT","units":14,"amount":106200}},{"type":"Feature","geometry":{"type":"Point","coordinates":[-80.057,40.496]},"properties":{"city":"Bellevue","state":"PA","proj_num":3340001,"name":"BRN VAUGH DEVE","units":12,"amount":78700}},{"type":"Feature","geometry":{"type":"Point","coordinates":[-77.189,40.201]},"properties":{"city":"Carlisle","state":"PA","proj_num":3442065,"name":"MOORELAND APTS","units":24,"amount":187000}},{"type":"Feature","geometry":{"type":"Point","coordinates":[-123.039,44.939]},"properties":{"city":"Salem","state":"OR","proj_num":12642066,"name":"CAPITOL PLAZA","units":35,"amount":298100}},{"type":"Feature","geometry":{"type":"Point","coordinates":[-80.023,40.364]},"properties":{"city":"Castle Shannon","state":"PA","proj_num":3342231,"name":"Deng","units":41,"amount":358600}},{"type":"Feature","geometry":{"type":"Point","coordinates":[-75.378,40.621]},"properties":{"city":"Bethlehem","state":"PA","proj_num":3440033,"name":"PARKHURST INC","units":76,"amount":598366}},{"type":"Feature","geometry":{"type":"Point","coordinates":[-75.399,39.917]},"properties":{"city":"Delaware County","state":"PA","proj_num":3440053,"name":"HI TOP","units":171,"amount":1421000}},{"type":"Feature","geometry":{"type":"Point","coordinates":[-76.931,40.24]},"properties":{"city":"Camp Hill","state":"PA","proj_num":3442050,"name":"HILLSIDE APTS INC","units":24,"amount":160486}},{"type":"Feature","geometry":{"type":"Point","coordinates":[-75.481,40.633]},"properties":{"city":"Fullerton","state":"PA","proj_num":3442041,"name":"JORDON PARK APTS","units":199,"amount":1400000}},{"type":"Feature","geometry":{"type":"Point","coordinates":[-80.083,42.128]},"properties":{"city":"Erie","state":"PA","proj_num":3342099,"name":"J J + N F SCHAAF","units":16,"amount":128200}},{"type":"Feature","geometry":{"type":"Point","coordinates":[-77.683,40.845]},"properties":{"city":"Centre Hall","state":"PA","proj_num":3440014,"name":"STUART APTS","units":24,"amount":158500}},{"type":"Feature","geometry":{"type":"Point","coordinates":[-79.547,40.311]},"properties":{"city":"Greensburg","state":"PA","proj_num":3340041,"name":"RALPH F WILPS INC","units":22,"amount":195000}},{"type":"Feature","geometry":{"type":"Point","coordinates":[-76.882,40.26]},"properties":{"city":"Harrisburg","state":"PA","proj_num":3442061,"name":"BRIARCLIFF APTS","units":72,"amount":548700}},{"type":"Feature","geometry":{"type":"Point","coordinates":[-80.112,40.852]},"properties":{"city":"Lancaster Twp.","state":"PA","proj_num":3440047,"name":"EAST GARDENS 1","units":20,"amount":186300}},{"type":"Feature","geometry":{"type":"Point","coordinates":[-79.381,40.318]},"properties":{"city":"Latrobe","state":"PA","proj_num":3342090,"name":"STELLA APTS","units":20,"amount":130000}},{"type":"Feature","geometry":{"type":"Point","coordinates":[-80.24,41.227]},"properties":{"city":"Mercer","state":"PA","proj_num":3342181,"name":"KIMBERLY LAND CO","units":14,"amount":113400}},{"type":"Feature","geometry":{"type":"Point","coordinates":[-79.864,40.348]},"properties":{"city":"Mc Keesport","state":"PA","proj_num":3342161,"name":"HUEY APTS INC","units":21,"amount":163500}},{"type":"Feature","geometry":{"type":"Point","coordinates":[-80.045,40.38]},"properties":{"city":"Mount Lebanon","state":"PA","proj_num":3342059,"name":"CASTLETONE APTS","units":26,"amount":220000}},{"type":"Feature","geometry":{"type":"Point","coordinates":[-79.903,40.397]},"properties":{"city":"Munhall","state":"PA","proj_num":3342110,"name":"ALBERTA APTS","units":10,"amount":83200}},{"type":"Feature","geometry":{"type":"Point","coordinates":[-79.819,40.383]},"properties":{"city":"North Versailles T","state":"PA","proj_num":3342076,"name":"CHESHIRE APTS INC","units":14,"amount":119500}},{"type":"Feature","geometry":{"type":"Point","coordinates":[-75.166,39.951]},"properties":{"city":"Philadelphia","state":"PA","proj_num":3440012,"name":"TABOR MIDWAY CORP","units":23,"amount":144852}},{"type":"Feature","geometry":{"type":"Point","coordinates":[-79.995,40.442]},"properties":{"city":"Pittsburgh","state":"PA","proj_num":3340008,"name":"RICHLAND APTS","units":10,"amount":68000}},{"type":"Feature","geometry":{"type":"Point","coordinates":[-80.18,40.54]},"properties":{"city":"Sewickley","state":"PA","proj_num":3342111,"name":"SEWICKLEY DEVELOP","units":19,"amount":160000}},{"type":"Feature","geometry":{"type":"Point","coordinates":[-80.495,41.233]},"properties":{"city":"Sharon","state":"PA","proj_num":3342196,"name":"SCHOLL APTS INC","units":14,"amount":113400}},{"type":"Feature","geometry":{"type":"Point","coordinates":[-77.858,40.79]},"properties":{"city":"State College","state":"PA","proj_num":3440010,"name":"PENN STATE APTS","units":30,"amount":220500}},{"type":"Feature","geometry":{"type":"Point","coordinates":[-76.792,40.86]},"properties":{"city":"Sunbury","state":"PA","proj_num":3442031,"name":"RIVERVIEW APTS","units":22,"amount":166500}},{"type":"Feature","geometry":{"type":"Point","coordinates":[-79.831,40.316]},"properties":{"city":"Versailles","state":"PA","proj_num":3342015,"name":"JOS M LAROSA","units":12,"amount":104572}},{"type":"Feature","geometry":{"type":"Point","coordinates":[-80.185,39.895]},"properties":{"city":"Waynesburg","state":"PA","proj_num":3342220,"name":"BANAR APTS","units":20,"amount":83517}},{"type":"Feature","geometry":{"type":"Point","coordinates":[-80.245,40.171]},"properties":{"city":"Washington","state":"PA","proj_num":3342203,"name":"NORTH AVE APTS","units":52,"amount":451500}},{"type":"Feature","geometry":{"type":"Point","coordinates":[-79.885,40.444]},"properties":{"city":"Wilkinsburg","state":"PA","proj_num":3342235,"name":"PENN CHARLTON APT","units":35,"amount":270000}},{"type":"Feature","geometry":{"type":"Point","coordinates":[-75.859,41.234]},"properties":{"city":"Wilkes-Barre Twp","state":"PA","proj_num":3440019,"name":"LAFAYETTE GARDENS","units":92,"amount":725848}},{"type":"Feature","geometry":{"type":"Point","coordinates":[-71.413,41.824]},"properties":{"city":"Providence","state":"RI","proj_num":1640001,"name":"FLORIDIAN APTS","units":20,"amount":162000}},{"type":"Feature","geometry":{"type":"Point","coordinates":[-66.116,18.341]},"properties":{"city":"Guaynabo Municipio","state":"RQ","proj_num":5642020,"name":"SANLIE CORP","units":240,"amount":1271400}},{"type":"Feature","geometry":{"type":"Point","coordinates":[-67.102,18.205]},"properties":{"city":"Mayaguez Municipio","state":"RQ","proj_num":5642004,"name":"MAYAGUEZ DARLINGT","units":122,"amount":970100}},{"type":"Feature","geometry":{"type":"Point","coordinates":[-66.619,18.073]},"properties":{"city":"Ponce Municipio","state":"RQ","proj_num":5642003,"name":"PONCE APTS","units":122,"amount":967100}},{"type":"Feature","geometry":{"type":"Point","coordinates":[-67.045,18.082]},"properties":{"city":"San German Municip","state":"RQ","proj_num":5642009,"name":"BONGOR CORP","units":200,"amount":1059400}},{"type":"Feature","geometry":{"type":"Point","coordinates":[-82.651,34.5]},"properties":{"city":"Anderson","state":"SC","proj_num":5442014,"name":"BAILEY COURT","units":100,"amount":785300}},{"type":"Feature","geometry":{"type":"Point","coordinates":[-80.71,32.449]},"properties":{"city":"Bal Of Beaufort","state":"SC","proj_num":5442045,"name":"RBT SEWALL GRDNS","units":40,"amount":157200}},{"type":"Feature","geometry":{"type":"Point","coordinates":[-83.066,34.754]},"properties":{"city":"Bal Of Oconee","state":"SC","proj_num":5442066,"name":"CANNON DOVA","units":78,"amount":325100}},{"type":"Feature","geometry":{"type":"Point","coordinates":[-83.025,34.678]},"properties":{"city":"Bal Of Richland","state":"SC","proj_num":5440013,"name":"HIGHLAND PARK APT","units":77,"amount":688000}},{"type":"Feature","geometry":{"type":"Point","coordinates":[-79.963,32.813]},"properties":{"city":"Bal Of Charleston","state":"SC","proj_num":5442007,"name":"RIVERCREST APTS","units":76,"amount":615600}},{"type":"Feature","geometry":{"type":"Point","coordinates":[-80.608,34.252]},"properties":{"city":"Camden","state":"SC","proj_num":5442017,"name":"KING HAGLER APTS","units":30,"amount":207500}},{"type":"Feature","geometry":{"type":"Point","coordinates":[-82.496,34.525]},"properties":{"city":"Belton","state":"SC","proj_num":5442080,"name":"BELTON APTS","units":32,"amount":183364}},{"type":"Feature","geometry":{"type":"Point","coordinates":[-81.08,33.961]},"properties":{"city":"Cayce","state":"SC","proj_num":5442092,"name":"HILLVIEW APTS","units":60,"amount":271700}},{"type":"Feature","geometry":{"type":"Point","coordinates":[-79.931,32.776]},"properties":{"city":"Charleston","state":"SC","proj_num":5442010,"name":"SERGEANT JASPER","units":234,"amount":2068800}},{"type":"Feature","geometry":{"type":"Point","coordinates":[-82.835,34.689]},"properties":{"city":"Clemson","state":"SC","proj_num":5442035,"name":"TOM LITTLEJOHN","units":50,"amount":20130617}},{"type":"Feature","geometry":{"type":"Point","coordinates":[-81.214,34.705]},"properties":{"city":"Chester","state":"SC","proj_num":5442088,"name":"BOOKER WASHINGTON","units":25,"amount":100900}},{"type":"Feature","geometry":{"type":"Point","coordinates":[-81.881,34.473]},"properties":{"city":"Clinton","state":"SC","proj_num":5442037,"name":"KING APTS","units":24,"amount":130000}},{"type":"Feature","geometry":{"type":"Point","coordinates":[-81.037,34.009]},"properties":{"city":"Columbia","state":"SC","proj_num":5440006,"name":"WALES GARDEN APTS","units":26,"amount":199500}},{"type":"Feature","geometry":{"type":"Point","coordinates":[-79.37,34.422]},"properties":{"city":"Dillon","state":"SC","proj_num":5442032,"name":"DILLWOOD APTS","units":32,"amount":185000}},{"type":"Feature","geometry":{"type":"Point","coordinates":[-79.06,33.838]},"properties":{"city":"Conway","state":"SC","proj_num":5442061,"name":"KINGSTON APTS","units":30,"amount":151700}},{"type":"Feature","geometry":{"type":"Point","coordinates":[-79.762,34.196]},"properties":{"city":"Florence","state":"SC","proj_num":5442021,"name":"GREGG APTS","units":30,"amount":222700}},{"type":"Feature","geometry":{"type":"Point","coordinates":[-81.641,35.059]},"properties":{"city":"Gaffney","state":"SC","proj_num":5442031,"name":"SAMS APTS","units":26,"amount":197600}},{"type":"Feature","geometry":{"type":"Point","coordinates":[-82.399,34.851]},"properties":{"city":"Greenville","state":"SC","proj_num":5440012,"name":"LEWIS VILLAGE","units":94,"amount":760000}},{"type":"Feature","geometry":{"type":"Point","coordinates":[-82.159,34.188]},"properties":{"city":"Greenwood","state":"SC","proj_num":5442050,"name":"EDWARD ARMS","units":50,"amount":423453}},{"type":"Feature","geometry":{"type":"Point","coordinates":[-81.61,34.279]},"properties":{"city":"Newberry","state":"SC","proj_num":5442089,"name":"CORAL COURT APTS","units":36,"amount":179800}},{"type":"Feature","geometry":{"type":"Point","coordinates":[-81.957,33.514]},"properties":{"city":"North Augusta","state":"SC","proj_num":5442042,"name":"WASHINGTON HOMES","units":75,"amount":312000}},{"type":"Feature","geometry":{"type":"Point","coordinates":[-79.401,34.176]},"properties":{"city":"Marion","state":"SC","proj_num":5442072,"name":"F WEST COURT INC","units":16,"amount":11417}},{"type":"Feature","geometry":{"type":"Point","coordinates":[-80.864,33.487]},"properties":{"city":"Orangeburg","state":"SC","proj_num":5442051,"name":"CLOVER APTS","units":50,"amount":423199}},{"type":"Feature","geometry":{"type":"Point","coordinates":[-80.685,32.399]},"properties":{"city":"Port Royal","state":"SC","proj_num":5442047,"name":"SEA ISLAND APTS","units":50,"amount":254000}},{"type":"Feature","geometry":{"type":"Point","coordinates":[-80.013,32.879]},"properties":{"city":"North Charleston","state":"SC","proj_num":5442068,"name":"GOVERNOR YEAMANS","units":96,"amount":582400}},{"type":"Feature","geometry":{"type":"Point","coordinates":[-81.935,34.948]},"properties":{"city":"Spartanburg","state":"SC","proj_num":5440001,"name":"ABBIO APTS","units":36,"amount":224000}},{"type":"Feature","geometry":{"type":"Point","coordinates":[-81.03,34.941]},"properties":{"city":"Rock Hill","state":"SC","proj_num":5442049,"name":"THE COBB HOUSE","units":50,"amount":423332}},{"type":"Feature","geometry":{"type":"Point","coordinates":[-80.367,33.93]},"properties":{"city":"Sumter","state":"SC","proj_num":5442028,"name":"BIRNIE APTS","units":75,"amount":278200}},{"type":"Feature","geometry":{"type":"Point","coordinates":[-81.073,33.988]},"properties":{"city":"West Columbia","state":"SC","proj_num":5442018,"name":"VIRGINIA COURT","units":116,"amount":643700}},{"type":"Feature","geometry":{"type":"Point","coordinates":[-81.242,34.994]},"properties":{"city":"York","state":"SC","proj_num":5442041,"name":"WHIT GREEN HOMES","units":77,"amount":300000}},{"type":"Feature","geometry":{"type":"Point","coordinates":[-98.488,45.465]},"properties":{"city":"Aberdeen","state":"SD","proj_num":9140006,"name":"ABERDEEN HSG CORP","units":22,"amount":154600}},{"type":"Feature","geometry":{"type":"Point","coordinates":[-85.308,35.046]},"properties":{"city":"Chattanooga","state":"TN","proj_num":8142032,"name":"MODERN APTS","units":20,"amount":158500}},{"type":"Feature","geometry":{"type":"Point","coordinates":[-81.626,34.721]},"properties":{"city":"Union","state":"SC","proj_num":5442087,"name":"MURRAH APTS","units":50,"amount":290000}},{"type":"Feature","geometry":{"type":"Point","coordinates":[-84.607,35.448]},"properties":{"city":"Athens","state":"TN","proj_num":8142071,"name":"LYNNWOOD APTS","units":16,"amount":83500}},{"type":"Feature","geometry":{"type":"Point","coordinates":[-85.501,36.157]},"properties":{"city":"Cookeville","state":"TN","proj_num":8140021,"name":"CARSON WRIGHT","units":10,"amount":64000}},{"type":"Feature","geometry":{"type":"Point","coordinates":[-82.541,36.539]},"properties":{"city":"Kingsport","state":"TN","proj_num":8742001,"name":"PLAZA APARTMENTS I","units":36,"amount":260000}},{"type":"Feature","geometry":{"type":"Point","coordinates":[-85.346,34.994]},"properties":{"city":"Lookout Mountain","state":"TN","proj_num":8140013,"name":"LOOKOUT MT INVEST","units":12,"amount":95000}},{"type":"Feature","geometry":{"type":"Point","coordinates":[-83.917,35.963]},"properties":{"city":"Knoxville","state":"TN","proj_num":8742007,"name":"LINCOLN HEIGHTS","units":200,"amount":862000}},{"type":"Feature","geometry":{"type":"Point","coordinates":[-90.052,35.143]},"properties":{"city":"Memphis","state":"TN","proj_num":8140003,"name":"LAUBRUM","units":18,"amount":103000}},{"type":"Feature","geometry":{"type":"Point","coordinates":[-88.819,35.614]},"properties":{"city":"Jackson","state":"TN","proj_num":8142088,"name":"MAGNOLIA COURTS","units":16,"amount":133900}},{"type":"Feature","geometry":{"type":"Point","coordinates":[-89.91,35.341]},"properties":{"city":"Millington","state":"TN","proj_num":8142014,"name":"GREENLAWN APTS","units":76,"amount":490000}},{"type":"Feature","geometry":{"type":"Point","coordinates":[-86.779,36.166]},"properties":{"city":"Nashville-Davidson","state":"TN","proj_num":8140023,"name":"CAPITOL GARDENS","units":26,"amount":170000}},{"type":"Feature","geometry":{"type":"Point","coordinates":[-83.295,36.214]},"properties":{"city":"Morristown","state":"TN","proj_num":8742002,"name":"CHEROKEE APARTMENTS","units":20,"amount":132000}},{"type":"Feature","geometry":{"type":"Point","coordinates":[-86.46,35.483]},"properties":{"city":"Shelbyville","state":"TN","proj_num":8142087,"name":"HILLCREST APTS","units":16,"amount":103500}},{"type":"Feature","geometry":{"type":"Point","coordinates":[-101.832,35.207]},"properties":{"city":"Amarillo","state":"TX","proj_num":11342036,"name":"HERMOSA APTS","units":8,"amount":43100}},{"type":"Feature","geometry":{"type":"Point","coordinates":[-94.102,30.086]},"properties":{"city":"Beaumont","state":"TX","proj_num":11440040,"name":"BUENA VISTA APT 1","units":12,"amount":0}},{"type":"Feature","geometry":{"type":"Point","coordinates":[-95.455,29.704]},"properties":{"city":"Bellaire","state":"TX","proj_num":11440081,"name":"BASSWOOD APTS","units":24,"amount":187100}},{"type":"Feature","geometry":{"type":"Point","coordinates":[-97.747,30.265]},"properties":{"city":"Austin","state":"TX","proj_num":11542013,"name":"BERRY HILL APTS","units":8,"amount":0}},{"type":"Feature","geometry":{"type":"Point","coordinates":[-101.472,32.24]},"properties":{"city":"Big Spring","state":"TX","proj_num":11342101,"name":"BIG SPRING HSG A","units":40,"amount":240000}},{"type":"Feature","geometry":{"type":"Point","coordinates":[-101.399,35.659]},"properties":{"city":"Borger","state":"TX","proj_num":11342044,"name":"GATEWAY APTS","units":56,"amount":337300}},{"type":"Feature","geometry":{"type":"Point","coordinates":[-97.387,32.347]},"properties":{"city":"Cleburne","state":"TX","proj_num":11340011,"name":"JAMESTOWNE APTS","units":20,"amount":165600}},{"type":"Feature","geometry":{"type":"Point","coordinates":[-96.796,32.778]},"properties":{"city":"Dallas","state":"TX","proj_num":11240006,"name":"HILLCREST HOMES","units":16,"amount":0}},{"type":"Feature","geometry":{"type":"Point","coordinates":[-102.276,33.179]},"properties":{"city":"Brownfield","state":"TX","proj_num":11342034,"name":"BROWNFIELD MANOR","units":16,"amount":113500}},{"type":"Feature","geometry":{"type":"Point","coordinates":[-101.973,35.865]},"properties":{"city":"Dumas","state":"TX","proj_num":11342073,"name":"PHILLIPS APTS","units":8,"amount":48000}},{"type":"Feature","geometry":{"type":"Point","coordinates":[-94.796,29.3]},"properties":{"city":"Galveston","state":"TX","proj_num":11440026,"name":"LICATA APTS","units":8,"amount":49400}},{"type":"Feature","geometry":{"type":"Point","coordinates":[-94.798,32.158]},"properties":{"city":"Henderson","state":"TX","proj_num":11240070,"name":"HNDRSN PRKVW APTS","units":12,"amount":85000}},{"type":"Feature","geometry":{"type":"Point","coordinates":[-101.951,32.737]},"properties":{"city":"Lamesa","state":"TX","proj_num":11342080,"name":"GARWOOD APTS","units":28,"amount":184600}},{"type":"Feature","geometry":{"type":"Point","coordinates":[-97.33,32.75]},"properties":{"city":"Fort Worth","state":"TX","proj_num":11340012,"name":"HOLSTROM APTS","units":8,"amount":61900}},{"type":"Feature","geometry":{"type":"Point","coordinates":[-101.855,33.584]},"properties":{"city":"Lubbock","state":"TX","proj_num":11340006,"name":"LUBBOCK APTS INC","units":26,"amount":189200}},{"type":"Feature","geometry":{"type":"Point","coordinates":[-94.728,31.333]},"properties":{"city":"Lufkin","state":"TX","proj_num":11440039,"name":"PINDELL MANOR","units":18,"amount":144500}},{"type":"Feature","geometry":{"type":"Point","coordinates":[-97.922,26.15]},"properties":{"city":"Mercedes","state":"TX","proj_num":11542002,"name":"MERCEDES MANOR","units":20,"amount":127500}},{"type":"Feature","geometry":{"type":"Point","coordinates":[-102.078,31.997]},"properties":{"city":"Midland","state":"TX","proj_num":11340002,"name":"PARK TERRACE","units":8,"amount":57600}},{"type":"Feature","geometry":{"type":"Point","coordinates":[-102.375,31.849]},"properties":{"city":"Odessa","state":"TX","proj_num":11340003,"name":"FRANCES APTS","units":24,"amount":162200}},{"type":"Feature","geometry":{"type":"Point","coordinates":[-100.972,35.533]},"properties":{"city":"Pampa","state":"TX","proj_num":11342089,"name":"HIGHLAND APTS","units":8,"amount":43600}},{"type":"Feature","geometry":{"type":"Point","coordinates":[-93.934,29.872]},"properties":{"city":"Port Arthur","state":"TX","proj_num":13142007,"name":"GREEN AVE APTS","units":62,"amount":356400}},{"type":"Feature","geometry":{"type":"Point","coordinates":[-100.437,31.464]},"properties":{"city":"San Angelo","state":"TX","proj_num":11342013,"name":"BRYANT APTS","units":32,"amount":259200}},{"type":"Feature","geometry":{"type":"Point","coordinates":[-98.495,29.425]},"properties":{"city":"San Antonio","state":"TX","proj_num":11540004,"name":"JULIENNE APTS","units":21,"amount":168500}},{"type":"Feature","geometry":{"type":"Point","coordinates":[-94.903,29.384]},"properties":{"city":"Texas City","state":"TX","proj_num":11440093,"name":"SOUTHWIND TERRACE","units":16,"amount":118000}},{"type":"Feature","geometry":{"type":"Point","coordinates":[-97.006,28.799]},"properties":{"city":"Victoria","state":"TX","proj_num":11542030,"name":"VICTORIA APTS","units":64,"amount":448700}},{"type":"Feature","geometry":{"type":"Point","coordinates":[-97.13,31.557]},"properties":{"city":"Waco","state":"TX","proj_num":11242029,"name":"BROOKVIEW HILLS","units":64,"amount":477200}},{"type":"Feature","geometry":{"type":"Point","coordinates":[-98.501,33.91]},"properties":{"city":"Wichita Falls","state":"TX","proj_num":11340018,"name":"ROSELAND BLDG","units":14,"amount":104600}},{"type":"Feature","geometry":{"type":"Point","coordinates":[-112.016,41.51]},"properties":{"city":"Brigham City","state":"UT","proj_num":10560007,"name":"PEACH CITY APTS","units":36,"amount":200000}},{"type":"Feature","geometry":{"type":"Point","coordinates":[-113.062,37.677]},"properties":{"city":"Cedar City","state":"UT","proj_num":10560005,"name":"RASMUSSEN HSG","units":38,"amount":145000}},{"type":"Feature","geometry":{"type":"Point","coordinates":[-111.662,40.235]},"properties":{"city":"Provo","state":"UT","proj_num":10542012,"name":"THE GEORGIAN","units":45,"amount":377100}},{"type":"Feature","geometry":{"type":"Point","coordinates":[-111.835,41.735]},"properties":{"city":"Logan","state":"UT","proj_num":10560006,"name":"BUSHNELL HOMES","units":38,"amount":200000}},{"type":"Feature","geometry":{"type":"Point","coordinates":[-111.888,40.758]},"properties":{"city":"Salt Lake City","state":"UT","proj_num":10542001,"name":"BEN AIRE","units":40,"amount":320600}},{"type":"Feature","geometry":{"type":"Point","coordinates":[-77.044,38.805]},"properties":{"city":"Alexandria","state":"VA","proj_num":60032,"name":"RAMSEY APTS INC","units":39,"amount":0}},{"type":"Feature","geometry":{"type":"Point","coordinates":[-79.525,37.334]},"properties":{"city":"Bedford","state":"VA","proj_num":5140022,"name":"OVERSTREET APTS","units":8,"amount":35000}},{"type":"Feature","geometry":{"type":"Point","coordinates":[-77.085,38.891]},"properties":{"city":"Arlington","state":"VA","proj_num":40129,"name":"FLOWER PROP","units":12,"amount":0}},{"type":"Feature","geometry":{"type":"Point","coordinates":[-81.271,37.253]},"properties":{"city":"Bluefield","state":"VA","proj_num":5142077,"name":"COLLEGE TERR APTS","units":30,"amount":228000}},{"type":"Feature","geometry":{"type":"Point","coordinates":[-77.174,38.884]},"properties":{"city":"Falls Church","state":"VA","proj_num":40181,"name":"GARDENIA APTS","units":23,"amount":183600}},{"type":"Feature","geometry":{"type":"Point","coordinates":[-76.923,36.678]},"properties":{"city":"Franklin","state":"VA","proj_num":5142083,"name":"POCAHONTAS CORP","units":14,"amount":95800}},{"type":"Feature","geometry":{"type":"Point","coordinates":[-77.393,37.265]},"properties":{"city":"Colonial Heights","state":"VA","proj_num":5142043,"name":"COLONIAL COURT","units":64,"amount":494000}},{"type":"Feature","geometry":{"type":"Point","coordinates":[-77.461,38.303]},"properties":{"city":"Fredericksburg","state":"VA","proj_num":5142022,"name":"UNIVERSITY APTS","units":10,"amount":70000}},{"type":"Feature","geometry":{"type":"Point","coordinates":[-76.342,37.028]},"properties":{"city":"Hampton","state":"VA","proj_num":5142040,"name":"SHERATON PARK CRP","units":124,"amount":920700}},{"type":"Feature","geometry":{"type":"Point","coordinates":[-79.865,36.685]},"properties":{"city":"Martinsville","state":"VA","proj_num":5142021,"name":"MONROE ARMS","units":8,"amount":54000}},{"type":"Feature","geometry":{"type":"Point","coordinates":[-76.286,36.846]},"properties":{"city":"Norfolk","state":"VA","proj_num":5140011,"name":"CHESTER CORP","units":124,"amount":984400}},{"type":"Feature","geometry":{"type":"Point","coordinates":[-77.388,37.205]},"properties":{"city":"Petersburg","state":"VA","proj_num":5140035,"name":"CHURCH HILL APTS","units":84,"amount":642600}},{"type":"Feature","geometry":{"type":"Point","coordinates":[-77.434,37.541]},"properties":{"city":"Richmond","state":"VA","proj_num":5140002,"name":"OLD BROOK CORP","units":60,"amount":351000}},{"type":"Feature","geometry":{"type":"Point","coordinates":[-80.057,37.293]},"properties":{"city":"Salem","state":"VA","proj_num":5142002,"name":"ELIZABETH HEIGHTS","units":24,"amount":163800}},{"type":"Feature","geometry":{"type":"Point","coordinates":[-77.335,38.548]},"properties":{"city":"Triangle","state":"VA","proj_num":5140007,"name":"TRIANGLE PROPERTI","units":40,"amount":287500}},{"type":"Feature","geometry":{"type":"Point","coordinates":[-78.91,36.706]},"properties":{"city":"South Boston","state":"VA","proj_num":5142067,"name":"GRAVE APTS","units":11,"amount":66000}},{"type":"Feature","geometry":{"type":"Point","coordinates":[-79.071,38.157]},"properties":{"city":"Staunton","state":"VA","proj_num":5142065,"name":"PARKWOOD APTS","units":53,"amount":401400}},{"type":"Feature","geometry":{"type":"Point","coordinates":[-79.939,37.271]},"properties":{"city":"Roanoke","state":"VA","proj_num":5140009,"name":"GREENWOOD HOMES","units":9,"amount":73800}},{"type":"Feature","geometry":{"type":"Point","coordinates":[-73.211,44.476]},"properties":{"city":"Burlington","state":"VT","proj_num":2642001,"name":"UNIVERSITY APTS","units":92,"amount":738000}},{"type":"Feature","geometry":{"type":"Point","coordinates":[-76.709,37.276]},"properties":{"city":"Williamsburg","state":"VA","proj_num":5140019,"name":"WILLIAMSBURG APTS","units":118,"amount":896400}},{"type":"Feature","geometry":{"type":"Point","coordinates":[-72.973,43.611]},"properties":{"city":"Rutland","state":"VT","proj_num":2642004,"name":"GREEN MT CORP","units":16,"amount":129400}},{"type":"Feature","geometry":{"type":"Point","coordinates":[-120.027,47.847]},"properties":{"city":"Chelan","state":"WA","proj_num":12742047,"name":"TREADWELL APTS","units":10,"amount":70000}},{"type":"Feature","geometry":{"type":"Point","coordinates":[-122.479,48.752]},"properties":{"city":"Bellingham","state":"WA","proj_num":12742050,"name":"BELLINGHAM APTS","units":47,"amount":399600}},{"type":"Feature","geometry":{"type":"Point","coordinates":[-117.046,46.414]},"properties":{"city":"Clarkston","state":"WA","proj_num":17142011,"name":"PARKWAY APTS","units":8,"amount":49600}},{"type":"Feature","geometry":{"type":"Point","coordinates":[-119.551,47.322]},"properties":{"city":"Ephrata","state":"WA","proj_num":17142009,"name":"PATRICK APTS","units":28,"amount":226800}},{"type":"Feature","geometry":{"type":"Point","coordinates":[-120.549,47]},"properties":{"city":"Ellensburg","state":"WA","proj_num":12742045,"name":"ELLENSBURG APTS","units":34,"amount":256000}},{"type":"Feature","geometry":{"type":"Point","coordinates":[-122.196,47.979]},"properties":{"city":"Everett","state":"WA","proj_num":12740014,"name":"BROADMOOR APTS","units":108,"amount":776100}},{"type":"Feature","geometry":{"type":"Point","coordinates":[-122.938,46.139]},"properties":{"city":"Longview","state":"WA","proj_num":12740021,"name":"MAPLE DEV CO","units":30,"amount":198000}},{"type":"Feature","geometry":{"type":"Point","coordinates":[-122.222,47.575]},"properties":{"city":"Mercer Island","state":"WA","proj_num":12742010,"name":"SHOREWOOD APTS","units":594,"amount":4999560}},{"type":"Feature","geometry":{"type":"Point","coordinates":[-122.901,47.036]},"properties":{"city":"Olympia","state":"WA","proj_num":12742041,"name":"MAPLE VISTA","units":83,"amount":675000}},{"type":"Feature","geometry":{"type":"Point","coordinates":[-119.117,46.242]},"properties":{"city":"Pasco","state":"WA","proj_num":17142013,"name":"SACAJAWEA APTS","units":60,"amount":514000}},{"type":"Feature","geometry":{"type":"Point","coordinates":[-122.336,48.417]},"properties":{"city":"Mount Vernon","state":"WA","proj_num":12742051,"name":"MT VERNON APTS","units":20,"amount":158000}},{"type":"Feature","geometry":{"type":"Point","coordinates":[-122.207,47.475]},"properties":{"city":"Renton","state":"WA","proj_num":12742036,"name":"INVSTRS SYNDICATE","units":32,"amount":239000}},{"type":"Feature","geometry":{"type":"Point","coordinates":[-122.33,47.603]},"properties":{"city":"Seattle","state":"WA","proj_num":12740004,"name":"TEKLA TERRACE","units":23,"amount":170000}},{"type":"Feature","geometry":{"type":"Point","coordinates":[-119.487,47.384]},"properties":{"city":"Soap Lake","state":"WA","proj_num":17140005,"name":"GARLIN APTS","units":11,"amount":72000}},{"type":"Feature","geometry":{"type":"Point","coordinates":[-123.106,47.213]},"properties":{"city":"Shelton","state":"WA","proj_num":12740048,"name":"HOLLY HILLS APTS","units":10,"amount":68000}},{"type":"Feature","geometry":{"type":"Point","coordinates":[-117.425,47.659]},"properties":{"city":"Spokane","state":"WA","proj_num":17140002,"name":"SOUTH SIDE INV CO","units":10,"amount":61046}},{"type":"Feature","geometry":{"type":"Point","coordinates":[-122.442,47.253]},"properties":{"city":"Tacoma","state":"WA","proj_num":12742046,"name":"TACOMA PROPERTIES","units":138,"amount":1047900}},{"type":"Feature","geometry":{"type":"Point","coordinates":[-122.672,45.631]},"properties":{"city":"Vancouver","state":"WA","proj_num":12640012,"name":"CAMPUS COURT","units":12,"amount":105200}},{"type":"Feature","geometry":{"type":"Point","coordinates":[-118.334,46.066]},"properties":{"city":"Walla Walla","state":"WA","proj_num":17142004,"name":"BRENTWOOD APTS","units":30,"amount":222800}},{"type":"Feature","geometry":{"type":"Point","coordinates":[-120.325,47.43]},"properties":{"city":"Wenatchee","state":"WA","proj_num":12740015,"name":"HOMES INC","units":52,"amount":340000}},{"type":"Feature","geometry":{"type":"Point","coordinates":[-91.252,43.809]},"properties":{"city":"La Crosse","state":"WI","proj_num":7542092,"name":"CASS APTS","units":103,"amount":793500}},{"type":"Feature","geometry":{"type":"Point","coordinates":[-89.385,43.074]},"properties":{"city":"Madison","state":"WI","proj_num":7540022,"name":"TILTON TERRACE","units":216,"amount":1976000}},{"type":"Feature","geometry":{"type":"Point","coordinates":[-90.172,44.667]},"properties":{"city":"Marshfield","state":"WI","proj_num":7540003,"name":"ALLEN APARTMENTS","units":24,"amount":150000}},{"type":"Feature","geometry":{"type":"Point","coordinates":[-87.909,43.041]},"properties":{"city":"Milwaukee","state":"WI","proj_num":7540030,"name":"CP","units":10,"amount":83900}},{"type":"Feature","geometry":{"type":"Point","coordinates":[-87.713,43.751]},"properties":{"city":"Sheboygan","state":"WI","proj_num":7542042,"name":"R + J CORP","units":16,"amount":49617}},{"type":"Feature","geometry":{"type":"Point","coordinates":[-89.214,43.183]},"properties":{"city":"Sun Prairie","state":"WI","proj_num":7542058,"name":"EDWARD ROSE JACK","units":8,"amount":69000}},{"type":"Feature","geometry":{"type":"Point","coordinates":[-88.235,43.013]},"properties":{"city":"Waukesha","state":"WI","proj_num":7542039,"name":"BRICKSON CO","units":8,"amount":56200}},{"type":"Feature","geometry":{"type":"Point","coordinates":[-88.007,43.059]},"properties":{"city":"Wauwatosa","state":"WI","proj_num":7540057,"name":"WESTCHESTER APTS","units":30,"amount":146500}},{"type":"Feature","geometry":{"type":"Point","coordinates":[-88.007,43.017]},"properties":{"city":"West Allis","state":"WI","proj_num":7540031,"name":"LINCOLN","units":28,"amount":223500}},{"type":"Feature","geometry":{"type":"Point","coordinates":[-88.184,43.426]},"properties":{"city":"West Bend","state":"WI","proj_num":7542038,"name":"LINCOLN APTS","units":8,"amount":61500}},{"type":"Feature","geometry":{"type":"Point","coordinates":[-87.896,43.114]},"properties":{"city":"Whitefish Bay","state":"WI","proj_num":7542012,"name":"MONICA REALTY","units":12,"amount":113000}},{"type":"Feature","geometry":{"type":"Point","coordinates":[-81.188,37.785]},"properties":{"city":"Beckley","state":"WV","proj_num":4542012,"name":"LAWNWOOD TERRACE","units":45,"amount":333700}},{"type":"Feature","geometry":{"type":"Point","coordinates":[-81.223,37.27]},"properties":{"city":"Bluefield","state":"WV","proj_num":4542010,"name":"WOODLAND MANOR","units":22,"amount":160000}},{"type":"Feature","geometry":{"type":"Point","coordinates":[-81.638,38.351]},"properties":{"city":"Charleston","state":"WV","proj_num":4542003,"name":"VALLEY ROAD TERR","units":8,"amount":64000}},{"type":"Feature","geometry":{"type":"Point","coordinates":[-82.445,38.419]},"properties":{"city":"Huntington","state":"WV","proj_num":4542009,"name":"MADISON CORP","units":8,"amount":64800}},{"type":"Feature","geometry":{"type":"Point","coordinates":[-81.696,38.361]},"properties":{"city":"South Charleston","state":"WV","proj_num":4542004,"name":"ROSEMONT APTS","units":8,"amount":54000}},{"type":"Feature","geometry":{"type":"Point","coordinates":[-104.819,41.14]},"properties":{"city":"Cheyenne","state":"WY","proj_num":10440001,"name":"ROCKY MOUNTAIN","units":8,"amount":49825}}]}